team_number,nickname,name,city,state_prov,postal_code,lat,lng,county_fips,rookie_year,seasons_counted,county_name,median_household_income,per_capita_income,gini_index,employment_rate,poverty_rate
1,The Juggernauts,FCA Foundation/Molex/3M&Oakland Schools Technical Campus Northeast,Pontiac,Michigan,48340,42.6722375,-83.2880591,26125,1997,,"Oakland County, Michigan",95296.0,55114.0,0.4651,0.9524251054472043,0.07693796589437044
100,The Wildhats,Salesky.dev/Viasat/Broadcom/Gene Haas Foundation/Boeing/Pacific Gas and Electric/Lockheed Martin/Alan Steel and Supply Company/Menlo Park Barber Shop/Intuitive Foundation/PG&E/Apple&Woodside High School,Woodside,California,94062,37.4299388,-122.2538557,06081,1995,,"San Mateo County, California",156000.0,81980.0,0.4956,0.9552757283618747,0.06491334958028704
10004,SCAROB (Star City Area Robotics),Munters/Alcova Mortgage/Science Museum of Western Virginia/Boeing/BAE Systems/NASA/Community Foundation Serving Western Virginia/Gene Haas Foundation/Intuitive Foundation&Family/Community,Roanoke,Virginia,,37.27135911264596,-79.9443047541259,51770,2025,,"Roanoke city, Virginia",52671.0,34792.0,0.5043,0.9450560694114758,0.19672435679123193
10011,Gridrunners,"DoDSTEM/NASA/LTC Louis E. Hoffman (USA) & CAPT Kathleen M. Hoffman (USAR)/Fischer Engineering Company, LLC/BAE Systems/Gene Haas Foundation/Leidos&Dayton Regional STEM School",Dayton,Ohio,,39.7265747,-84.1208503,39113,2025,,"Montgomery County, Ohio",64403.0,37320.0,0.4594,0.9415310675765571,0.14898581041572992
10014,REBELLION,Team ANVIL/Turbo Metabolic Training/NASA/Gene Haas Foundation/Boeing/Milholland General Neurology/FIRST in Texas/PTC - Onshape/OnlineMetals.com/3D-Fuel/Sigma Batteries/Inverters-R-US/ePlastics/LMNT/Slack/Monday.com&Family/Community,Prosper,Texas,,33.2480074,-96.7850822,48085,2025,,"Collin County, Texas",117588.0,55057.0,0.4312,0.9588534307278348,0.06302209373460449
10017,GPS Robotics,NASA/Hack Club & Kirkland Ranch Academy of Innovation & Family/Community,Wesley Chapel,Florida,,28.289493,-82.2712669,12101,2025,,"Pasco County, Florida",67384.0,37757.0,0.4601,0.9510326764961224,0.11096565943293367
1002,CircuitRunners Robotics,NCR/RW Smith Company/Lockheed Martin/StartProto/Parker's 3D Prints/Chick-fil-A/Sevaa Group/Wheeler Magnet Foundation Center For Advanced Studies/NASA/Farm Burger&Joseph Wheeler High School,Marietta,Georgia,30068,33.9668266,-84.4435223,13067,2003,,"Cobb County, Georgia",98712.0,50975.0,0.4467,0.9545395710059171,0.08545102597969813
10021,Guerin Catholic Golden Gears,Engineering Concepts Unlimited/Scooch/NASA/Indiana Department of Education/Chik fil a/Gaylor Electric LLC/Smitten Kitten Cat Cafe/State Farm &St Theodore Guerin HS,Noblesville,Indiana,,40.0102938,-86.0872041,18057,2025,,"Hamilton County, Indiana",117957.0,58929.0,0.4391,0.9719554301661184,0.04349751374281129
10029,The Portotypes,Cleveland Cliffs/The Argosy Foundation/Portage Township Education Foundation & Portage High School,Portage,Indiana,,41.5518181,-87.1666248,18127,2025,,"Porter County, Indiana",85828.0,42814.0,0.4291,0.9556478612690522,0.09224135402305594
10032,Singularity,NASA/Texas Workforce Commission/Gene Haas/Techie Factory/Raising Cane's&Family/Community,Frisco,Texas,,33.150146150941445,-96.8238385793564,48085,2025,,"Collin County, Texas",117588.0,55057.0,0.4312,0.9588534307278348,0.06302209373460449
10059,Tech On Titans,Oak Grove High School,San Jose,California,,37.2522089,-121.8198666,06085,2025,,"Santa Clara County, California",159674.0,77018.0,0.4739,0.9553829989225302,0.06864609510211955
10063,S.C.R.A.P.,THE ROBOTICIST SOCIETY/NASA/DoD STEM/Argosy Foundation/NHRL/Bolt Depot/Recorded Future/Gene Haas Foundation/TE Connectivity/Atlas Metal Works/Sheet Metal Workers Local 17/American Flatbread Somerville/Coastal Heritage Bank/Lumyn Labs/Southside Tees Locals 91/Carrier/GreenGate3D/Park Ave Market/Weymouth Rotary/TRUMPF/Candlepin Specialists/Patz Family/Kearney Family/Team Zahler/M3NT0RBU1LT/Compass Home Services/Mei Rose C/Republic Plumbing Supply/Jeff Sylvester/Myles Harris/Michelle Meek/Jennifer Desmond/MKE Development Corp&Weymouth High School,Weymouth,Massachusetts,,42.1812027,-70.9441174,25021,2025,,"Norfolk County, Massachusetts",126497.0,69508.0,0.4843,0.9506661768962993,0.06628655601975898
10066,CephaloSquad,NASA/The Argosy Foundation/Robonauts Everybot/Rutland Regional Medical Center/Hack Club Bank/FIRST in Vermont/FRC 5471 W.Hi.R.R. from Winthrop ME/FRC 2370 IBOTS from Rutland VT/VELCO/SaucyVT&Mill River Union High School&Family/Community&Marble Valley Robotics,North Clarendon,Vermont,,43.547028,-72.97152,50021,2025,,"Rutland County, Vermont",64778.0,38902.0,0.4642,0.9587384317263038,0.12026748796134017
10070,Ghost Bots,Abington Senior High School,Abington,Pennsylvania,,40.1120981,-75.131461,42101,2025,,"Philadelphia County, Pennsylvania",60698.0,37669.0,0.5152,0.9159715366337955,0.22003358368324463
10072,WhirlyBots,Wilson County Schools&Wilson County Schools,Wilson,North Carolina,,35.7528704,-77.9225482,37195,2025,,"Wilson County, North Carolina",51381.0,30057.0,0.4831,0.9399910183002134,0.21003443187407772
10077,The H.E.I.S.T.,Mecklenburg County Parks and Rec/NASA/Childress Klein/MHI/Agrosy/Silver State Flooring/Grants Lawn Services/Amy Black/Wells Fargo/Olga Grinberg&Family/Community,Huntersville,North Carolina,,35.40922423200174,-80.84276845343872,37025,2025,,"Cabarrus County, North Carolina",86084.0,40652.0,0.438,0.9548007335363657,0.08921248713071701
10079,Arrowdynamics,Northshore School District/SPEEA/Boeing/NASA/FIRST WA/Gene Haas Foundation/Bothell High School/Dunn Lumber/Northwest Folklife/Electroimpact/H10 Capital/Fluke/Northshore Rotary/Neal Brenner/Romac Industries/Fluke Metal Products/BC Craftsman/Woodinville Print/Online metals/Apple/Intuitive Foundation/Argosy Foundation/Bothell High School PTSA&Bothell High School,Bothell,Washington,,47.760959,-122.2192398,53061,2025,,"Snohomish County, Washington",107982.0,51836.0,0.4246,0.9564722973986349,0.0788036461370417
10101,Critical Hit,Argosy Foundation/The Gene Haas Foundation/Tennessee Valley Robotics/Boeing/PPG Foundation/Leidos/FIRST&Family/Community,Huntsville,Alabama,,34.7429725,-86.5843478,01089,2025,,"Madison County, Alabama",83528.0,46784.0,0.4659,0.962100793081383,0.10482494149148708
10107,ThunderBirdz,Google&Cox Mill High School,Concord,North Carolina,,35.3951558,-80.7285733,37025,2025,,"Cabarrus County, North Carolina",86084.0,40652.0,0.438,0.9548007335363657,0.08921248713071701
10108,Hazard5,Enosburg Falls Middle/High School & Richford Junior/Senior High School,Enosburg Falls,Vermont,,44.9053176,-72.8039149,50011,2025,,"Franklin County, Vermont",79078.0,38447.0,0.4093,0.9719679416568542,0.10085178875638842
1011,CRUSH,Raytheon/The Day Family&Ssa-Tucson K-12,Tucson,Arizona,85741,32.3312255,-111.0341183,04019,2003,,"Pima County, Arizona",67929.0,38564.0,0.4662,0.9431381069640932,0.14352333331374773
10118,Robonauts EveryBot,S&K Engineering & Research/NASA - Johnson Space Center/Clear Creek Independent School District&Family/Community,Houston,Texas,,29.740365879404465,-95.2566775171949,48201,2025,,"Harris County, Texas",73104.0,39978.0,0.4997,0.9357693951321783,0.15918066709753084
10121,TMSA MechaTiger,NASA&Triangle Math and Science Academy,Apex,North Carolina,,35.7331983,-78.8062587,37183,2025,,"Wake County, North Carolina",101763.0,52949.0,0.4486,0.9584709406304517,0.07931606432353402
10133,Manhattan Monsters,Waterbury Career Academy,Waterbury,Connecticut,,41.5575432,-73.02027149999999,09009,2025,,,,,,,
10137,RoboKats,Family/Community,Lexington,Kentucky,,38.0389091,-84.5152662,21067,2025,,"Fayette County, Kentucky",67631.0,42272.0,0.4909,0.9499946418801924,0.1568367300709982
10138,VikingBot,Lyndon Institute,Lyndon Center,Vermont,,44.5384146,-72.01536589999999,50005,2025,,"Caledonia County, Vermont",66075.0,38153.0,0.4429,0.9740007517854905,0.12556008489707915
1014,Bad Robots,American Electric Power/Dublin AM Rotary/Denso/OSU FIRST/Honda/Dublin Foundation/Dublin Robotics Boosters/Exxon Mobil&Dublin Scioto High School&Dublin Coffman High School&Dublin Jerome High School,Dublin,Ohio,43017,40.115674,-83.13273319999999,39049,2003,,"Franklin County, Ohio",73795.0,42855.0,0.4692,0.954533484028837,0.14536010351466974
10143,Northeast High Viking Robotics,Northeast HS,Philadelphia,Pennsylvania,,40.0562004,-75.0703505,42101,2025,,"Philadelphia County, Pennsylvania",60698.0,37669.0,0.5152,0.9159715366337955,0.22003358368324463
10147,ArmBots,AESA,Glendale,California,,34.1236841,-118.2564631,06037,2025,,"Los Angeles County, California",87760.0,44319.0,0.4972,0.9297188106694895,0.13643018098759088
10152,Orbotics,Horace Greeley High School,Chappaqua,New York,,41.1751707,-73.7580409,36119,2025,,"Westchester County, New York",118411.0,70607.0,0.5351,0.9398564584240726,0.08879149519468665
10156,Marshy Machines,Marshfield High,Marshfield,Massachusetts,,42.1087031,-70.7415997,25023,2025,,"Plymouth County, Massachusetts",109698.0,55965.0,0.4676,0.948737160120846,0.07088959377485601
10157,Roman Robotics,Roman Catholic High School,Philadelphia,Pennsylvania,,39.9581144,-75.16176,42101,2025,,"Philadelphia County, Pennsylvania",60698.0,37669.0,0.5152,0.9159715366337955,0.22003358368324463
10159,PHS MAC-ros,Pace High School,Milton,Florida,,30.6324149,-87.03968809999999,12113,2025,,"Santa Rosa County, Florida",88968.0,41388.0,0.4205,0.9551088700957238,0.08442102805721804
10162,Viking Robotics,Family/Community,Fort Walton Beach,Florida,,30.419697251730156,-86.61740831486071,12091,2025,,"Okaloosa County, Florida",79097.0,42261.0,0.4358,0.9687576499388005,0.09283461018476791
10166,Thunder Vikes,DL Fresh Foundation/Gene Haas Foundation/Oxnard Union High School District&Hueneme High,Port Hueneme,California,,34.159392,-119.1825044,06111,2025,,"Ventura County, California",107327.0,48416.0,0.4492,0.9453687441562629,0.09017859300611421
10170,ND Robotics,Notre Dame High School,Lawrence Township,New Jersey,,40.2550957,-74.7441313,34021,2025,,"Mercer County, New Jersey",96333.0,52101.0,0.5021,0.9386380832282472,0.11073541611339113
10172,South Side Archers,The REFINERY/Bionanomics&South Side High School,Fort Wayne,Indiana,,41.0523924,-85.1367646,18003,2025,,"Allen County, Indiana",68839.0,36432.0,0.4437,0.9537492609702083,0.12198983985071228
10173,Minot Syber-Sentinels,North Dakota CTE/Department of Defense/Minot Sertoma/ND space grant Consortium/Ackerman-Estvold Engineering/Industrial Automation/Minot junior Golf Association/Crescent Electric/Minot Foundation&Family/Community&MInot North High School,Minot,North Dakota,,48.26035299999999,-101.326048,38101,2025,,"Ward County, North Dakota",79273.0,42299.0,0.4311,0.9656258049743839,0.07787030999940726
10177,CyberClaws,"NASA/Motorola Solutions/The Goizueta Foundation/Gene Haas Foundation/MWL Engineering Corp&Belen Jesuit Preparatory School, Inc.",Miami,Florida,,25.7631294,-80.4018936,12086,2025,,"Miami-Dade County, Florida",68694.0,37858.0,0.5134,0.956113801238301,0.14932170150631757
1018,Pike RoboDevils,MSD of Pike Township/Indiana Department of Education/Gene Haas Foundation/Allison Transmission/Genesys/For Inspiration and Recognition of Science and Technology/Pike Township Educational Foundation/FIRST Indiana/PBS Aerosoace/Fastenal/Metal Supermarkets/Piedmont Plastics/Descon/Mr. Wright/The Ehm Family/Mr. Lattimore/The Kahle Family&Pike High School,Indianapolis,Indiana,46268,39.8998074,-86.2361744,18097,2003,,"Marion County, Indiana",63450.0,36355.0,0.4701,0.9489304334988383,0.15123951080304693
10181,ProtoWarriors,Forest Area High School,Fife Lake,Michigan,,44.5850611,-85.2929384,26079,2025,,"Kalkaska County, Michigan",60365.0,32904.0,0.4223,0.9571994062345374,0.14088351623864967
10183,ARC,The Adelson Educational Campus-Las Vegas,Las Vegas,Nevada,,36.2007902,-115.3059053,32003,2025,,"Clark County, Nevada",73845.0,38654.0,0.4697,0.9257664984431849,0.1320819368165142
10186,feenx,Galena Tech Corp&Family/Community,Reno,Nevada,,39.53058166407968,-119.81429569055553,32031,2025,,"Washoe County, Nevada",85600.0,46857.0,0.4661,0.9503442806707182,0.10685089828392169
102,The Gearheads,"Johnson & Johnson/Picatinny Arsenal/Department of Defense/Comcast NBCUniversal/Elmer's Catering/Community Options, Inc./Furino & Sons, Inc./Crisdel/Dr. Victor J. Bauer/Qualcomm/Air Liquide/PDQ Auto Supply/BPOE/Eii Electrical Contractors&Somerville High School",Somerville,New Jersey,08876,40.5742696,-74.60987999999999,34035,1998,,"Somerset County, New Jersey",135960.0,70321.0,0.4615,0.9522654215494791,0.054903160040774716
10207,Doomsday Engineering,Millstream Career Center,Findlay,Ohio,,41.0545809,-83.66587469999999,39063,2025,,"Hancock County, Ohio",69699.0,39313.0,0.4439,0.9674364598116372,0.10271270036991369
10208,Mayhem Manufacturing,Millstream Career Center,Findlay,Ohio,,41.054160331377176,-83.66587419417492,39063,2025,,"Hancock County, Ohio",69699.0,39313.0,0.4439,0.9674364598116372,0.10271270036991369
10212,Circuit Bakers,Dublin High,Dublin,California,,37.7203614,-121.9241051,06001,2025,,"Alameda County, California",126240.0,63442.0,0.474,0.9482662247779002,0.09220637203712095
10217,Catahoula Blue Dogs,Dow/NASA &West Baton Rouge Career & Technology Academy,Port Allen,Louisiana,,30.4501907,-91.2051079,22121,2025,,"West Baton Rouge Parish, Louisiana",87320.0,38107.0,0.4199,0.9341658846459251,0.15974725887381527
10219,Bathtub Chickens,NASA/DOD STEM/Gene Haas Foundation/TE Connectivity&St. Andrews Bay STEM Academy,Panama City,Florida,,30.1469297,-85.64943319999999,12005,2025,,"Bay County, Florida",70188.0,38856.0,0.4378,0.9642694760188523,0.11669852088085776
10221,#1 Sea Bass,NASA&Family/Community,San Francisco,California,,37.776026769548736,-122.41966819307407,06075,2025,,"San Francisco County, California",141446.0,90285.0,0.5181,0.943759657186893,0.10582881322583858
10223,Crimson Jewels,James Monroe Upper School,Rochester,New York,,43.14693,-77.597762,36055,2025,,"Monroe County, New York",74409.0,43137.0,0.4669,0.9489484214867198,0.1305751378755181
10224,MAV MECHANICS (NASA),NASA/Gene Haas/Hack Club/Autoolmaq/John Thrower&Douglas S. Freeman High,Henrico,Virginia,,37.6307265,-77.54399610000002,51087,2025,,"Henrico County, Virginia",86397.0,50277.0,0.4689,0.9612427547658144,0.08437701216139008
10228,Phoenix Robotics,"OMC Group/Community Foundation of Tampa Bay, Inc./FCDI-AMRoC Fab Lab/Jersey College School of Nursing/AJ Marks Entertainment, Inc.&Family/Community",Zephyrhills,Florida,,28.2336196,-82.18119469999999,12101,2025,,"Pasco County, Florida",67384.0,37757.0,0.4601,0.9510326764961224,0.11096565943293367
10229,Event Horizon,The Dalton School,New York,New York,,40.781585,-73.95508699999999,36061,2025,,"New York County, New York",104553.0,94922.0,0.5956,0.9299196793489302,0.1583846859840042
1023,Bedford Express,Forest View Recreation /Boeing/FIRST Solar/ComCast/DTE/Farm Bureau Insurance/Cox Automotive&Bedford Senior High School,Temperance,Michigan,48182,41.7792144,-83.5688244,26115,2003,,"Monroe County, Michigan",75272.0,39303.0,0.4273,0.9497418061621378,0.1105663633511139
10231,Midnight Circuits,North Charleston High,North Charleston,South Carolina,,32.8769132,-80.01138689999999,45019,2025,,"Charleston County, South Carolina",84320.0,54769.0,0.5121,0.9640383914469688,0.116404695681438
10232,Killer Kardinals 2,Schneider Electric&Plainfield High School,Plainfield,New Jersey,,40.6116038,-74.412178,34039,2025,,"Union County, New Jersey",100117.0,51850.0,0.4838,0.936896430511616,0.08921531222179829
1024,Kil-A-Bytes,MSD Lawrence Township/NASA&McKenzie Center for Innovation and Technology,Indianapolis,Indiana,46256,39.9029533,-86.0223611,18097,2003,,"Marion County, Indiana",63450.0,36355.0,0.4701,0.9489304334988383,0.15123951080304693
10245,WAMS,Waterbury Arts Magnet School,Waterbury,Connecticut,,41.554972,-73.0382149,09009,2025,,,,,,,
10248,Iron Byrds,Douglas Byrd High,Fayetteville,North Carolina,,35.0214947,-78.93587889999999,37051,2025,,"Cumberland County, North Carolina",58780.0,31206.0,0.4467,0.922925542108289,0.17220636856198224
1025,Impi Warriors,FORD/Stellantis/Schaeffler/State of MI Grant/FPS/B. Nektar/Comcast NBC Universal/Novelis&Ferndale High School,Ferndale,Michigan,48220,42.4605917,-83.1346478,26125,2003,,"Oakland County, Michigan",95296.0,55114.0,0.4651,0.9524251054472043,0.07693796589437044
10252,Mecha Lions,Stratford Preparatory Blackford,San Jose,California,,37.3135503,-121.9689221,06085,2025,,"Santa Clara County, California",159674.0,77018.0,0.4739,0.9553829989225302,0.06864609510211955
10254,Regal Seagulls,Falmouth Education Foundation/MIT Club of Cape Cod/Falmouth Public Schools & Falmouth High & Lawrence,Falmouth,Massachusetts,,41.5926929,-70.60621979999999,25007,2025,,"Dukes County, Massachusetts",102348.0,71014.0,0.5558,0.9325468068735573,0.05379283413062579
10256,Team Scrap Metal,Valley Robotics Program/Gene Haas Foundation/NASA/Marusiak LLC Waterjet & Laser/Penske/Southwest Waterjet and Laser/Anodizing of Mesa&Family/Community,Gilbert,Arizona,,33.35217228040712,-111.7887488417325,04013,2025,,"Maricopa County, Arizona",85518.0,44210.0,0.4571,0.953956221163431,0.11250356744752435
10257,Vector Space,"Lynchburg City Schools Education Foundation/NASA/Foster Fuels/Gene Haas Foundation/Innovative Wireless Technologies, Inc./Framatome, Inc./Electronic Design and Manufacturing/Argosy Foundation/Future Focus Foundation&Vector Space",Lynchburg,Virginia,,37.4077991,-79.16278820000001,51680,2025,,"Lynchburg city, Virginia",59808.0,30004.0,0.4564,0.9496318345605514,0.17387568449260166
10260,RoboJags,NASA&Northampton County High School&Northampton Early College,Jackson,North Carolina,,36.5110592,-77.6526281,37083,2025,,"Halifax County, North Carolina",45071.0,26951.0,0.4891,0.9133000453926464,0.2515527950310559
10262,Bionic Buzzers,Gene Haas/Argosy Foundation/NASA&Hastings High School,"Hastings-On-Hudson,",New York,,40.993785,-73.87483139999999,36119,2025,,"Westchester County, New York",118411.0,70607.0,0.5351,0.9398564584240726,0.08879149519468665
10264,STORM,University of Wisconsin - Stout (Wisconsin's Polytechnic University)/Argosy Foundation/Molex&Family/Community,Menomonie,Wisconsin,,44.8755183,-91.9193422,55033,2025,,"Dunn County, Wisconsin",71785.0,36207.0,0.4219,0.9583019242213846,0.10703930795189885
10266,Hopkins Galvanized Goats,Hopkins School,New Haven,Connecticut,,41.3187981,-72.9717891,09009,2025,,,,,,,
1027,Mechatronic Maniacs,Mass-West Construction&West Springfield High School,West Springfield,Massachusetts,01089,42.1249932,-72.6505957,25013,2003,,"Hampden County, Massachusetts",70535.0,37810.0,0.4707,0.9396921811203837,0.15714625055222187
10281,MechaWolves,S.F. International High,San Francisco,California,,37.7619231,-122.4010195,06075,2025,,"San Francisco County, California",141446.0,90285.0,0.5181,0.943759657186893,0.10582881322583858
10285,Sacred Heart Outlanders,Micah 6/Dogtopia/AutoDesk/NASA/Anne and Serge Danielson-Francois/Gilberto Ortiz Jasso and Mariana Luna Sanchez/Brody Riopelle&Academy of the Sacred Heart,Bloomfield Hills,Michigan,,42.5805292,-83.2259741,26125,2025,,"Oakland County, Michigan",95296.0,55114.0,0.4651,0.9524251054472043,0.07693796589437044
10287,Milwaukee City RC,Rockwell Automation/Regal Rexnord/Clarios/Northwestern Mutual/Argosy Foundation/Milwaukee Robotics Academy/Bliffert Lumber and Hardware/Department of Public Instruction&Milwaukee Robotics Academy,Milwaukee,Wisconsin,,43.07403024184642,-87.9021967481322,55079,2025,,"Milwaukee County, Wisconsin",62118.0,36955.0,0.475,0.9534368727514229,0.17465977939008884
103,Cybersonics,Rev Robotics/Mar Van Industries/In memory of Jamie Wright/Cima&Palisades High School,Kintnersville,Pennsylvania,18930,40.5590977,-75.17852649999999,42017,1997,,"Bucks County, Pennsylvania",111951.0,56824.0,0.4454,0.9544377624993623,0.06072224489155341
10300,Obama FRC,Pittsburgh Obama 6-12,Pittsburgh,Pennsylvania,,40.4651958915042,-79.92190934398997,42003,2025,,"Allegheny County, Pennsylvania",76393.0,48208.0,0.4835,0.9506103633555374,0.11214604696498016
10302,Byte Force,Schneider Electric/NASA/Gene Haas Foundation/FIRST NC/Johnston Family Fund&Family/Community,Cary,North Carolina,,35.791393544730084,-78.78305219006495,37183,2025,,"Wake County, North Carolina",101763.0,52949.0,0.4486,0.9584709406304517,0.07931606432353402
10303,C-TEC Robotics,Meta/Newark Moose Lodge #499&Career and Technology Educational Centers,Newark,Ohio,,40.05982976771386,-82.40132997378078,39089,2025,,"Licking County, Ohio",81033.0,41543.0,0.4502,0.9682740697507957,0.10134326750245236
10304,Circuit Breakers,NASA&Atkins Academic & Tech High,Winston-Salem,North Carolina,,36.1105579,-80.195844,37067,2025,,"Forsyth County, North Carolina",65541.0,37375.0,0.4735,0.9467307913714244,0.14695191939803595
10309,Jayhawks Robotics,Family/Community & Family/Community,Columbus,Mississippi,,33.495564909923644,-88.42809071855868,28087,2025,,"Lowndes County, Mississippi",54460.0,30771.0,0.4892,0.9386320305052431,0.16942711187315504
10312,ByteForce,NASA/Power House Networking/Texas Workforce Commission & Family/Community & STEMCYCLES,McKinney,Texas,,33.1983388,-96.6389342,48085,2025,,"Collin County, Texas",117588.0,55057.0,0.4312,0.9588534307278348,0.06302209373460449
10317,CIA Robotics,"NASA's Robotics Alliance Project/Robonauts Everybot Team#118/Argosy Foundation/Gene Haas Foundation/Whitakers ACE Hardware/Schaefer Plumbing LLC/Walmart/Carpenters Local #1770 - United Brotherhood of Carpenters and Joiners of America (UBC)/Rice, Spaeth, Moroni, & Heisserer, LLC/Mud Magnet Car Wash/Stratton Express/Rock ""N"" Roll Drive In/Siebert Farms/Select Plastics/Double K Services/Bank of Advance - Chaffee/Fortify Building Solutions/Cottrell Family/Havco Wood Products/Wachter Family/Ishmael Small Engines/J Marie's Formal Affairs/Wallace Architects LLC/Montgomery Auto Sales/Hinkebein Construction/Chaffee Drug Store/NAPA Auto Tire and Parts/Shelter Insurance - Leslie Horman/Chaffee Elks Lodge 1810/McMurry Artisan and Craftsman Specialties/League McNaughton Properties LLC/RoSe Reality/Chaffee Drive In/Dan's Quality Lumber/Chaffee Industrial Arts and Technology&Chaffee Jr.-Sr. High",Chaffee,Missouri,,37.17992832459842,-89.65310112003934,29201,2025,,"Scott County, Missouri",58847.0,32341.0,0.4765,0.9682936309622966,0.14455046364735924
10322,Beyond the Bell,Teen REACH: Beyond the Bell,Flora,Illinois,,38.6674995,-88.5008773,17025,2025,,"Clay County, Illinois",57266.0,33212.0,0.4652,0.9410878661087866,0.16714385204673837
10323,DeMolay Dynamics,Florida DeMolay/NASA/The Boeing Company/Gene Haas Foundation/STEM 2 Hub/Mirrors for Training USA/FPL&DeMolay International,North Port,Florida,,27.044224,-82.2359254,12015,2025,,"Charlotte County, Florida",66154.0,40603.0,0.4496,0.9444757609921083,0.0955535275977091
10332,Carroll Charger Robotics,NACS/BioNanomics/The Refinery/Don Wood Foundation/Indiana Department of Education/Gene Haas Foundation/Argosy Foundation/FIRST Indiana/Intuitive Foundation/Reboot/Fill-Rite/Nucor&Carroll High School,Fort Wayne,Indiana,,41.1899507,-85.1936413,18003,2025,,"Allen County, Indiana",68839.0,36432.0,0.4437,0.9537492609702083,0.12198983985071228
10333,Elevation,Cheyenne Mountain High School,Colorado Springs,Colorado,,38.803108,-104.857249,08041,2025,,"El Paso County, Colorado",87470.0,44250.0,0.4284,0.9453717795635317,0.08533097115285043
10336,BHA Tigers,Bright Horizon Academy,San Diego,California,,32.8017905,-117.0787114,06073,2025,,"San Diego County, California",102285.0,49891.0,0.4594,0.9376886669842963,0.1035269729034036
10338,10338 - CircuitMakers,Cairo High School,Cairo,Georgia,,30.8721459,-84.19938379999999,13131,2025,,"Grady County, Georgia",54312.0,28055.0,0.4501,0.9716199246546672,0.20587665982733924
10339,BrainShift,Chartwell School,Seaside,California,,36.6364833,-121.8029482,06053,2025,,"Monterey County, California",94486.0,39523.0,0.4627,0.9486635596936538,0.12581479466697207
10340,ITKAN Girls,LXT/T-Mobile Foundation/NASA/Texas Instruments/Gene Haas Foundation/Texas Workforce Commission/Argosy Foundation/BAE Systems/Swyft Robotics&Family/Community,Plano,Texas,,33.018717002615155,-96.69960089283396,48085,2025,,"Collin County, Texas",117588.0,55057.0,0.4312,0.9588534307278348,0.06302209373460449
10349,Pontiac Firebirds,NASA/Aptiv/Magna/Gene Haas/BAE Systems/11th Pontiac City Council/Argosy Foundation and Robonauts Everybot&Pontiac High School,Pontiac,Michigan,,42.6652922,-83.2678301,26125,2025,,"Oakland County, Michigan",95296.0,55114.0,0.4651,0.9524251054472043,0.07693796589437044
10354,Sting,Lee County High,Sanford,North Carolina,,35.4658333,-79.1469444,37105,2025,,"Lee County, North Carolina",63060.0,31394.0,0.4268,0.9595896899807259,0.15465693246104736
10361,Gatorbots,Argosy Foundation/AT&T&Lake Marion High School,Santee,South Carolina,,33.4751634,-80.4864764,45075,2025,,"Orangeburg County, South Carolina",43214.0,25682.0,0.4944,0.9065362783116956,0.2386278617387401
10366,Builder Bears,Bergenfield Board of Education&Bergenfield High School,Bergenfield,New Jersey,,40.9249334,-74.00677759999999,34003,2025,,"Bergen County, New Jersey",123715.0,62986.0,0.4725,0.9454909122864664,0.06718557620786332
10367,Category 4 Storm Surge,Summerville High,Summerville,South Carolina,,32.992572,-80.214913,45035,2025,,"Dorchester County, South Carolina",76896.0,37279.0,0.4158,0.9534439086170783,0.11524956417452802
10370,Squatch Watch,NASA&Ridgeview High,Clintwood,Virginia,,37.1342148,-82.3901207,51051,2025,,"Dickenson County, Virginia",43831.0,26070.0,0.4767,0.9728306655433867,0.20181304800118888
10372,THE ANTS,Milpitas High,Milpitas,California,,37.4509315,-121.9005301,06085,2025,,"Santa Clara County, California",159674.0,77018.0,0.4739,0.9553829989225302,0.06864609510211955
10376,Plutonium Panthers,John Deere/Department of Defense&Johnson Magnet,Augusta,Georgia,,33.4653987,-81.9810937,13245,2025,,"Richmond County, Georgia",53197.0,30209.0,0.4866,0.921001701403658,0.21135405461895707
10377,Aughtonauts,The Boeing Company/DOD STEM/NASA/Argosy Foundation/Oklahoma Science & Engineering Foundation&Family/Community,Oklahoma City,Oklahoma,,35.46772671080051,-97.51645492107548,40109,2025,,"Oklahoma County, Oklahoma",65374.0,38438.0,0.4897,0.9515706480323941,0.15713025925435065
1038,Lakota Robotics,"Paul George STEM Center/Salvagnini America Inc/Union Center Business Merchant Association/Makino/Sugarcreek/Noxsel-Waddell Foundation/The Boeing Company/Rockwell Automation/The Gene Haas Foundation/DoD STEM/Woods IT Consulting/GE Aerospace/BAE Systems/Enigneers and Scientists Foundation of Cincinnati/Last Anvil/G&W Machinery Sales, Inc./Cincinnati Metro/Peck Hannaford & Briggs/Formlabs/Intuitive Foundation&Lakota East High School&Lakota West High School&William Mason High School&Lakota Robotics, LLC",Liberty Township ,Ohio,45044,39.5038205,-84.3939224,39017,2003,,"Butler County, Ohio",81194.0,39425.0,0.4403,0.9520716193511156,0.11723124263108084
10380,The Dragon Hunters,American Leadership Academy Queen Creek K-12,Queen Creek,Arizona,,33.2328936,-111.6539993,04021,2025,,"Pinal County, Arizona",77588.0,35245.0,0.4194,0.9416201624834531,0.10871788658989193
10385,Cycle-Breakers,NASA/Gene Haas Foundation/Texas Workforce Commission/First in Texas/Robonauts/NI Emerson/Lockheed Martin&Texas Robotics Alliance,McAllen,Texas,,26.2034071,-98.2300124,48215,2025,,"Hidalgo County, Texas",52281.0,22005.0,0.4759,0.9243131086464026,0.27191434367341977
10388,The Iron Wolverine Angels,Argosy Foundation&Woodland High,Dorchester,South Carolina,,33.1676934,-80.4925078,45029,2025,,"Colleton County, South Carolina",48779.0,27859.0,0.4588,0.9067630845830122,0.18685771797859943
10392,Brawley Robocats,Qualcom/Brawley High School & Brawley Union High,Brawley,California,,33.0224057,-115.6154732,06025,2025,,"Imperial County, California",56393.0,22702.0,0.4617,0.874422649255859,0.19641722853862784
10393,Foxborough High School,Foxborough High,Foxboro,Massachusetts,,42.0545821,-71.250376,25021,2025,,"Norfolk County, Massachusetts",126497.0,69508.0,0.4843,0.9506661768962993,0.06628655601975898
10400,DART Doane Academy Robotics Team,Doane Academy/Boeing/Utaski &Doane Academy,Burlington,New Jersey,,40.0794796,-74.867167,34005,2025,,"Burlington County, New Jersey",105271.0,53077.0,0.433,0.9487697889048963,0.06769813133327311
10411,G-Code Generals 10411,Wayne High School,Fort Wayne,Indiana,,40.9996157,-85.13984769999999,18003,2025,,"Allen County, Indiana",68839.0,36432.0,0.4437,0.9537492609702083,0.12198983985071228
10412,TechBotTronics-1RSNC,Creative Empowerment of Hampton Roads LLC,Salisbury,North Carolina,,35.7331557,-80.493169,37159,2025,,"Rowan County, North Carolina",63196.0,32675.0,0.4511,0.9411600708142241,0.15835588375746587
10413,Flux Robotics,Family/Community,Pelham,New York,,40.8996475,-73.8036752,36005,2025,,"Bronx County, New York",49036.0,26956.0,0.5135,0.8888148712582671,0.2694714976944917
10416,Radical Raccoons,Hagan Foundation&Spokane Valley Tech Skills Center,Spokane Valley,Washington,,47.6558029,-117.2603252,53063,2025,,"Spokane County, Washington",73513.0,39879.0,0.4529,0.9426864110847604,0.12248615440315436
10421,Baldwin Coded Dragons,Baldwin Senior High School,Baldwin,Michigan,,43.8887939,-85.8562316,26085,2025,,"Lake County, Michigan",49680.0,27369.0,0.4439,0.9244541484716157,0.20606010431327096
10423,CB Tech,Columbia Basin Technical Skills Center,Moses Lake,Washington,,47.1044951,-119.2643163,53025,2025,,"Grant County, Washington",71115.0,32241.0,0.4359,0.9366584284983808,0.14959696062074096
10430,Solar Chill,West Bend School District 4K,West Bend,Wisconsin,,43.4138332,-88.18060779999999,55131,2025,,"Washington County, Wisconsin",95851.0,48255.0,0.402,0.973048965365329,0.05262271062271062
10434,CYBEARS,Northrop High School,Fort Wayne,Indiana,,41.1457383,-85.1394507,18003,2025,,"Allen County, Indiana",68839.0,36432.0,0.4437,0.9537492609702083,0.12198983985071228
10435,IRS - Intelligent Robotic Systems,Sahara Homecare&Mcc Academy College Prep,Morton Grove,Illinois,,42.0376848,-87.7712905,17031,2025,,"Cook County, Illinois",81797.0,47801.0,0.5028,0.9312331546319416,0.13339116973068246
10439,Wild Wires,Earlham Senior High School,Earlham,Iowa,,41.4950447,-94.1239166,19121,2025,,"Madison County, Iowa",89542.0,41878.0,0.3929,0.9732544119259016,0.06803912098526926
10444,Ursa Major,Sam Barlow High School,Gresham,Oregon,,45.4855344,-122.3535095,41051,2025,,"Multnomah County, Oregon",86247.0,52354.0,0.4757,0.9457013190281114,0.12524423182364405
10446,Circuitron,Family/Community,Bogalusa,Louisiana,,30.793503750357964,-89.84678459496801,22117,2025,,"Washington Parish, Louisiana",42776.0,25520.0,0.4872,0.8918529997786141,0.24194143417108602
10449,Robo Crusaders 1,National Society of Black Engineers & Launching Eduational Assistance Programs Forward (LEAP Forward Inc.),Prince Frederick,Maryland,,38.479804,-76.62068889999999,24009,2025,,"Calvert County, Maryland",132059.0,56411.0,0.382,0.9706336311941511,0.0402709016481279
10452,RoboLions,Horace Mann School,Bronx,New York,,40.8936623,-73.8983564,36005,2025,,"Bronx County, New York",49036.0,26956.0,0.5135,0.8888148712582671,0.2694714976944917
10453,Northmen Robotics,Oak Park High,Kansas City,Missouri,,39.2368485,-94.5700655,29047,2025,,"Clay County, Missouri",86150.0,42336.0,0.4099,0.9609856409450843,0.08489520673716204
10454,UPC Raptors,Uncommon Prep Charter High School,Brooklyn,New York,,40.6330598,-73.9173507,36047,2025,,"Kings County, New York",78548.0,46057.0,0.5312,0.9254059767464207,0.188857948288268
10455,Bison Dynamics,Bethel High School,Spanaway,Washington,,47.0545805,-122.3780837,53053,2025,,"Pierce County, Washington",96632.0,45885.0,0.4201,0.949594500589778,0.08869018822932914
10456,Atlantic Trojan Robotics,Atlantic High School,Atlantic,Iowa,,41.3947386,-94.9962398,19029,2025,,"Cass County, Iowa",61657.0,36881.0,0.4707,0.9886668654935878,0.17440323458518
10473,Team Lance-B-Bot,"Lakeshore Excellence Foundation/BOSCH/Griffin Tool Inc./Whirlpool Corporation/American Electric Power/Niles Steel Tank/Supreme Casting, Inc./Lakeshore Lions Club/Apollo - Seiko, Ltd./Honor Credit Union/LECO/Edgewater Automation/Boelcke Heating & Cooling/TigMaster Precision Fabrication/Art & Image/Omni Source/Stencil Plus.com/LOGIQUIP, LLC/Frederic & Kimberly's Aveda Salon/M & R Advisory/Culligan Water/Tyler Honda/Ace Hardware/Silver Beach Pizza/Red Coach Donuts/Culver's Restaurant/Round Barn Public House/Roundbelly's Pizza&Lakeshore High School",Stevensville,Michigan,,42.013216,-86.49404899999999,26021,2025,,"Berrien County, Michigan",63152.0,37747.0,0.4762,0.9353879787248224,0.1515089140466784
10476,Thunderbots,Pius X High School,Lincoln,Nebraska,,40.7993667,-96.6390957,31109,2025,,"Lancaster County, Nebraska",72625.0,40663.0,0.4608,0.9684867308172264,0.11680917185965252
10482,BuzzBots,Argosy Foundation&Family/Community,Athens,Georgia,,33.9592759,-83.3745629,13059,2025,,"Clarke County, Georgia",52267.0,31915.0,0.5061,0.9487036438911237,0.2585316191565981
10490,Ely Robotics,Memorial High School,Ely,Minnesota,,47.9003534,-91.8579928,27075,2025,,"Lake County, Minnesota",75621.0,40666.0,0.3965,0.9758254716981132,0.08331778316850158
10492,Bosse BYTEForce,Benjamin Bosse High School,Evansville,Indiana,,37.9638706,-87.5386468,18163,2025,,"Vanderburgh County, Indiana",60938.0,35369.0,0.457,0.9559487911403951,0.14364866575377144
10493,Harrison RoboWarriors,William Henry Harrison High School,Evansville,Indiana,,37.9744643,-87.4867769,18163,2025,,"Vanderburgh County, Indiana",60938.0,35369.0,0.457,0.9559487911403951,0.14364866575377144
10497,Bayou Bots,Family/Community,Centerville,Louisiana,,29.7597872,-91.428367,22101,2025,,"St. Mary Parish, Louisiana",51768.0,28157.0,0.4749,0.9456779374062787,0.2207463498305652
10500,Lodestar,Lodestar: a Lighthouse Community Charter Public,Oakland,California,,37.7858561,-122.2196165,06001,2025,,"Alameda County, California",126240.0,63442.0,0.474,0.9482662247779002,0.09220637203712095
10506,Crash Test Dummies,NASA/AZFIRST/Argosy Foundation&Family/Community,Goodyear,Arizona,,33.4353394,-112.3576567,04013,2025,,"Maricopa County, Arizona",85518.0,44210.0,0.4571,0.953956221163431,0.11250356744752435
1051,Technical Terminators,Duke Energy/S.C. Department of Commerce&Academy for Careers and Technology,Mullins,South Carolina,29574,34.2057166,-79.25449019999999,45067,2003,,"Marion County, South Carolina",34501.0,22676.0,0.5088,0.9413139444300181,0.2731821681013367
10512,Beyond Grad Greyhounds,Family/Community,Vanderbilt,Pennsylvania,,40.0236854,-79.8839357,42051,2025,,"Fayette County, Pennsylvania",56093.0,32278.0,0.4577,0.9328593996840442,0.1744788695666346
10513,Team Humanity Robo Falcons,Family/Community,Brownsville,Pennsylvania,,40.02447543907389,-79.88393339430233,42051,2025,,"Fayette County, Pennsylvania",56093.0,32278.0,0.4577,0.9328593996840442,0.1744788695666346
10515,Aluminum Tethys,Family/Community,Vanderbilt,Pennsylvania,,40.022759724870554,-79.8849035248781,42051,2025,,"Fayette County, Pennsylvania",56093.0,32278.0,0.4577,0.9328593996840442,0.1744788695666346
10516,Code Red,Hermitage School District &Family/Community,Hermitage,Pennsylvania,,41.2333896,-80.44868,42085,2025,,"Mercer County, Pennsylvania",60614.0,33320.0,0.434,0.9473089503419566,0.127518081646522
10517,Ctrl Alt Defeat,Family/Community,Vanderbilt,Pennsylvania,,40.02537717547555,-79.88529512264331,42051,2025,,"Fayette County, Pennsylvania",56093.0,32278.0,0.4577,0.9328593996840442,0.1744788695666346
10518,D.A.D.S,Hill Country College Prep H S,Bulverde,Texas,,29.79793429999999,-98.422892,48091,2025,,"Comal County, Texas",99015.0,51472.0,0.4542,0.9650245965702726,0.06438343501571454
10522,Sun Prairie School District,Sun Prairie East High & Sun Prairie West High,Sun Prairie,Wisconsin,,43.1805755,-89.2727163,55025,2025,,"Dane County, Wisconsin",88108.0,51486.0,0.451,0.9758051452272012,0.10484443194294477
10523,Singularity Robotics,Joyson Group/CSG Ltd./Onshape/Dassault Systèmes/Purdue University&Family/Community,Englewood,Colorado,,37.2519734661713,-121.80412835144432,06085,2025,,"Santa Clara County, California",159674.0,77018.0,0.4739,0.9553829989225302,0.06864609510211955
10547,United Phoenix,Saginaw United High School,Saginaw,Michigan,,43.4303442,-83.9502725,26145,2025,,"Saginaw County, Michigan",58347.0,33992.0,0.4763,0.9335116457933947,0.18075240308555093
10550,35 Soaring Roneagles,Argosy Foundation/Shell Co./Chevron&Mcdonogh 35 Senior High School,New Orleans,Louisiana,,29.998024324844337,-90.0812874981294,22071,2025,,"Orleans Parish, Louisiana",55339.0,39698.0,0.5591,0.9215802573743579,0.22631894319624862
10553,Orange Overdrive,Mid-Central Electric/Icon Robotics/Gene Haas Foundation/Alliant Energy/Milwaukee Tool/Metalcraft Industries/Sleep Inn & Suites/All Powder Coating&Oregon High,Oregon,Wisconsin,,42.9325902,-89.37228759999999,55025,2025,,"Dane County, Wisconsin",88108.0,51486.0,0.451,0.9758051452272012,0.10484443194294477
1056,Hot Rocks,The Technology Learning Center at Waiakea High School/Rocko Girl Murphalicious Enterprises LLC/The Waiākea High School Foundation/Subaru Telescope/EP Integrated/HPM/Canada-France-Hawaii Telescope/808 Electric/JNR Works/Embroid Me/HELCO/The Hawaiian Chip Company/The Rotary Club of Hilo/Big Island Candies/Oliveros Law LLLC/Waiakea Water/NexTech/Coffman Engineering /Hawaii Science and Technology Museum/Central Pacific Bank/Central Pacific Bank/Central Pacific Bank/Big Island Top Dogs/Inter-Island Solar Company/Kandis Drive In/Kuhio Grille/Suisan/American Savings Bank/Big Island Pearl Tea/Hawaii Gas/Hawaiian Telcom/HFS Federal Credit Union/W Squared Engineering LLC/Allied Machinery Corporation/Cory Wakano&Waiakea High School,Hilo,Hawaii,96720,19.7241106,-155.0868193,15001,2003,,"Hawaii County, Hawaii",77215.0,38406.0,0.4761,0.9382060503490586,0.14558039090800526
10577,TARMINATORS,Edwin Denby High,Detroit,Michigan,,42.4256391,-82.9583893,26099,2025,,"Macomb County, Michigan",76399.0,39467.0,0.4264,0.9421495535032653,0.09817367091111727
1058,PVC Pirates,Fleet Ready Corp./Londonderry STEM/SL Chasse Steel&Londonderry High School,Londonderry,New Hampshire,03053,42.8680259,-71.37569119999999,33015,2003,,"Rockingham County, New Hampshire",113927.0,59710.0,0.4285,0.9652173913043478,0.04774125516527285
10582,The Technochauns,Ursuline High School,Youngstown,Ohio,,41.1096874,-80.643119,39099,2025,,"Mahoning County, Ohio",55576.0,33850.0,0.4734,0.9359312655789195,0.18278874589637614
10583,Stampede,Providence Day School,Charlotte,North Carolina,,35.1604817,-80.77979599999999,37119,2025,,"Mecklenburg County, North Carolina",83765.0,51490.0,0.4935,0.9576078022526099,0.10410459324599264
10584,Ridge Robotics,Comcast NBCUniversal/Boeing/Argosy Foundation/Robonauts Everybot/Ashby Law Offices/Polymaker&Pennridge HS,Perkasie,Pennsylvania,,40.3874224,-75.2751148,42091,2025,,"Montgomery County, Pennsylvania",111521.0,60507.0,0.4707,0.9563689147505982,0.06506776751682582
10586,Unearthed,San Diego High,San Diego,California,,32.7113162,-117.1598304,06073,2025,,"San Diego County, California",102285.0,49891.0,0.4594,0.9376886669842963,0.1035269729034036
10587,Windover Wing Nuts,&Windover High School,MIDLAND,Michigan,,43.6162516,-84.283559,26111,2025,,"Midland County, Michigan",77538.0,42734.0,0.4581,0.9520570052387218,0.10912623717287025
10589,Binary Crows,JM Longyear LLC/Northern Michigan University&Family/Community,Marquette,Michigan,,46.5436199,-87.3953713,26103,2025,,"Marquette County, Michigan",64675.0,34471.0,0.4219,0.9510156774232904,0.13606157670794092
10590,Compass Team,Bridge Academy,Ypsilanti,Michigan,,42.24151634271625,-83.61244202871748,26161,2025,,"Washtenaw County, Michigan",87156.0,51746.0,0.4869,0.9563329029228783,0.13842958634123984
10591,No Cap,Columbia High,Columbia,South Carolina,,34.0496804,-81.0915727,45079,2025,,"Richland County, South Carolina",61699.0,37190.0,0.4892,0.9342676798743269,0.16892338092483478
10592,Stamford Cyber-Hird TSA,Westhill High School,Stamford,Connecticut,,41.0916671,-73.5647645,09001,2025,,,,,,,
10595,Big Bay de Noc Black Bear Bolts,Manistique Upholstery & Gifts&Big Bay De Noc School,Cooks,Michigan,,45.8688554,-86.5245927,26153,2025,,"Schoolcraft County, Michigan",57708.0,35744.0,0.458,0.9333717911739255,0.14787407500313557
10599,RoboBlazers,Argosy Foundation/Aflac/Check Point Software Technologies&Ridge View High,Columbia,South Carolina,,34.16309210000001,-80.910353,45079,2025,,"Richland County, South Carolina",61699.0,37190.0,0.4892,0.9342676798743269,0.16892338092483478
10600,Two Steps Ahead,&Family/Community,Edison,New Jersey,,40.48829201125688,-74.48288135933092,34023,2025,,"Middlesex County, New Jersey",109028.0,49417.0,0.4342,0.9359648181915693,0.08499631688207326
10605,Techno Talons,Agrosy/Highline&Engadine Schools,Engadine,Michigan,,46.11750486392482,-85.56785868326693,26095,2025,,"Luce County, Michigan",54338.0,27631.0,0.4283,0.9009812667261374,0.17236817236817237
10606,The Foley Flare,Bishop Foley Catholic High School,Madison Heights,Michigan,,42.5280805,-83.1249897,26099,2025,,"Macomb County, Michigan",76399.0,39467.0,0.4264,0.9421495535032653,0.09817367091111727
10607,DAAS Jaguars,Detroit Academy of Arts and Sciences,Detroit,Michigan,,42.3722611,-83.0464999,26163,2025,,"Wayne County, Michigan",59521.0,33956.0,0.4895,0.9132351507580325,0.20119497511085738
10612,Cougear,Auburn Hills Christian School,Auburn Hills,Michigan,,42.6959527,-83.2245183,26125,2025,,"Oakland County, Michigan",95296.0,55114.0,0.4651,0.9524251054472043,0.07693796589437044
10613,AEA Alterbots,Alternative Educational Academy of Ogemaw County,West Branch,Michigan,,44.2651821,-84.21611620000002,26129,2025,,"Ogemaw County, Michigan",51983.0,30529.0,0.4482,0.9269723452651741,0.17461715348109008
10614,AEA Robolution,Alternative Educational Academy of Iosco County,Tawas City,Michigan,,44.2791863,-83.5199724,26069,2025,,"Iosco County, Michigan",47777.0,29934.0,0.4579,0.9270988945324171,0.16614157527417747
10615,Spartan110,Home School,Pinole,California,,38.00318314655045,-122.2992534163791,06041,2025,,"Marin County, California",142785.0,90408.0,0.5232,0.9389182479690206,0.0782781712155589
10616,Iron Eagle Robotics,William H. Turner Technical Arts High School,Miami,Florida,,25.8665461,-80.229135,12086,2025,,"Miami-Dade County, Florida",68694.0,37858.0,0.5134,0.956113801238301,0.14932170150631757
10619,Rana's Rivets,Argosy Foundation&Darlington County Institute of Technology,Darlington,South Carolina,,34.3024147,-79.9325655,45031,2025,,"Darlington County, South Carolina",47419.0,30281.0,0.5029,0.9314110039224001,0.2029451398697904
10622,Gwinn ModelBots,Gwinn Middlehigh School,Gwinn,Michigan,,46.28194000514094,-87.4402739271663,26103,2025,,"Marquette County, Michigan",64675.0,34471.0,0.4219,0.9510156774232904,0.13606157670794092
10625,BuzzFusion,Calipatria High,Calipatria,California,,33.1255957,-115.5141538,06025,2025,,"Imperial County, California",56393.0,22702.0,0.4617,0.874422649255859,0.19641722853862784
10626,Smokin Batteries,Argosy Foundation/Robonauts/Lowes/Cinamon Donuts/89st Donuts/Scott & Melinda Taylor/Home Depot/Office Depot/Boeing/OG & E&Moore HS,Moore,Oklahoma,,35.3397298,-97.4741179,40027,2025,,"Cleveland County, Oklahoma",74446.0,38544.0,0.4415,0.9516233703648969,0.12801673017677564
10629,Bath Bee-Botics,Bath High School,Bath,Michigan,,42.8157418,-84.439881,26037,2025,,"Clinton County, Michigan",85928.0,44380.0,0.4256,0.9628049076184472,0.09356248327876371
10633,BeeBotics,Bridgman High School,Bridgman,Michigan,,41.9389307,-86.54464329999999,26021,2025,,"Berrien County, Michigan",63152.0,37747.0,0.4762,0.9353879787248224,0.1515089140466784
10642,Comstock Colts,CTR Electronics/Gene Haas/Toyota/Autodesk&Comstock High School,Kalamazoo,Michigan,,42.3081102,-85.51822519999999,26077,2025,,"Kalamazoo County, Michigan",70525.0,39915.0,0.4679,0.9435881296893663,0.13253268147518332
10644,West Coast Warriors,Family/Community,Union City,California,,37.5933562,-122.0438609,06001,2025,,"Alameda County, California",126240.0,63442.0,0.474,0.9482662247779002,0.09220637203712095
10650,Robonoles Robotics Team,Seminole High School,SANFORD,Florida,,28.7804002,-81.2842285,12117,2025,,"Seminole County, Florida",83030.0,44349.0,0.4467,0.9590653846153846,0.09207692373177148
10651,Gear Cats,Deltonkellogg High School,Delton,Michigan,,42.5000259,-85.4136031,26015,2025,,"Barry County, Michigan",77873.0,39955.0,0.44,0.9479132649728953,0.08144151644199674
10652,Mechanical MacGyvers,JD The Helpful Handyman LLC&Lutheran High School Northwest,Rochester Hills,Michigan,,42.65940806344973,-83.15043651848205,26125,2025,,"Oakland County, Michigan",95296.0,55114.0,0.4651,0.9524251054472043,0.07693796589437044
10654,Tiger Bytes,Advanced Architectural Sheet Metal and Supply/Unofficial 74/Shelby State Bank/Rotary Club/Optimist Club/Sons Disposal/Flemming Farms/Family & Friends&Shelby High School,Shelby,Michigan,,43.61966959999999,-86.3620073,26127,2025,,"Oceana County, Michigan",63624.0,31577.0,0.4221,0.9434148752162096,0.13279441345022583
10655,PHS Spartan Synergy,FIRST HQ/FIRST Louisiana-Mississippi/Chevron/Argosy Foundation/Intralox & Phoenix High School,Braithwaite,Louisiana,,29.6440678,-89.928375,22075,2025,,"Plaquemines Parish, Louisiana",82874.0,36570.0,0.4373,0.954992046411528,0.13363383269256265
10656,RataToaster,Argosy Foundation and Robonauts Everybot and Skyline High School&Forsythe Middle School,"Ann Arbor, City of",Michigan,,42.2964334,-83.76721830000001,26161,2025,,"Washtenaw County, Michigan",87156.0,51746.0,0.4869,0.9563329029228783,0.13842958634123984
10658,SEED Robotics,SEED School of Los Angeles Country,Los Angeles,California,,33.9621697,-118.2912182,06037,2025,,"Los Angeles County, California",87760.0,44319.0,0.4972,0.9297188106694895,0.13643018098759088
10659,Jaguar Byte,"Kabuki Flint/Solstice Sports Academy/Zonova, LLC&Southwestern Classical Academy",Flint,Michigan,,42.9981036,-83.6995714,26049,2025,,"Genesee County, Michigan",60673.0,34587.0,0.4638,0.9169643565928396,0.1594078029549741
10661,Blue Phoenix,Family/Community,Shawnee,Oklahoma,,35.3650687,-96.8726295,40125,2025,,"Pottawatomie County, Oklahoma",60828.0,29013.0,0.4434,0.9461202807816353,0.15682119587153318
10664,Big Reds,Gene Haas Foundation&Muskegon High School,Muskegon,Michigan,,43.2245217,-86.2462072,26121,2025,,"Muskegon County, Michigan",63495.0,32307.0,0.4385,0.9315952690033175,0.12598931743736536
10665,Unibots,University High School,Ferndale,Michigan,,42.467346,-83.134821,26163,2025,,"Wayne County, Michigan",59521.0,33956.0,0.4895,0.9132351507580325,0.20119497511085738
10666,Green MachineZ,Argosy/Berrien Springs Public Schools/Friends for Berrien Springs/Shamrock STEAM Coalition/Gene Haas Foundation/Autodesk&Berrien Springs High School,Berrien Springs,Michigan,,41.9461771,-86.34601769999999,26021,2025,,"Berrien County, Michigan",63152.0,37747.0,0.4762,0.9353879787248224,0.1515089140466784
10667,Genesee Wolves,Genesee High School,Genesee,Michigan,,43.1159998,-83.6180069,26049,2025,,"Genesee County, Michigan",60673.0,34587.0,0.4638,0.9169643565928396,0.1594078029549741
10672,Trojans,SAM Labs/Kin Aesthetics/Noori Chicken&Clarenceville High School,Livonia,Michigan,,42.43479139999999,-83.3370103,26163,2025,,"Wayne County, Michigan",59521.0,33956.0,0.4895,0.9132351507580325,0.20119497511085738
10679,The Wirewolves,Anne Arundel County Public Schools/Argosy Foundation & Family/Community & Severn Run High School,Severn,Maryland,,39.1221909,-76.64226219999999,24003,2025,,"Anne Arundel County, Maryland",120324.0,58462.0,0.4217,0.9604452798372041,0.054870578017649156
10682,Robo-Yotes,Family/Community,Salina,Kansas,,38.83997407345417,-97.61215679473128,20169,2025,,"Saline County, Kansas",63316.0,34403.0,0.4397,0.9640637004959139,0.12343248203089158
10686,Northfield Nightbots,Family/Community,Denver,Colorado,,39.7976002,-104.8839128,08001,2025,,"Adams County, Colorado",91387.0,40167.0,0.4098,0.9539915750539402,0.09415802805099763
10690,ERROR 448,Cranbrook Schools,Bloomfield Hills,Michigan,,42.5726202,-83.2436267,26125,2025,,"Oakland County, Michigan",95296.0,55114.0,0.4651,0.9524251054472043,0.07693796589437044
107,Team R.O.B.O.T.I.C.S.,Tommy's Express Car Wash/Schneider Electric/JR Automation/Koops/Gentex/Metal Flow/Gene Haas Foundation/Barber Ford/K-Line Industries/Bradford Just-In-Time Packaging/Birkdale Property Management/Worksighted/Choice Machinery Group/Haworth&Holland Christian High School,Holland,Michigan,49423,42.79182097847505,-86.11096495679926,26139,1997,,"Ottawa County, Michigan",87144.0,40682.0,0.4187,0.963812264832673,0.08156964656964658
10704,Storm Surge,Hickory Career Arts Magnet High School,Hickory,North Carolina,,35.743252,-81.33109879999999,37035,2025,,"Catawba County, North Carolina",64544.0,36025.0,0.4636,0.9580574500920994,0.12821061374476173
1071,Team MAX,Wolcott Public Schools/Bicron Electronics/Lockheed Martin/Mattatuck Scrap Metal/Wolcott Robotics Foundation/Gene Haas&Wolcott High School,Wolcott,Connecticut,06716,41.604736,-72.9696779,09009,2003,,,,,,,
10714,RAMpage.AI,Amsterdam High School,Amsterdam,New York,,42.964561,-74.17633700000002,36057,2025,,"Montgomery County, New York",62923.0,31975.0,0.4286,0.95273517489239,0.1470841889117043
1072,Harker Robotics,Harker Foundation/KeyShot/Alan Steel/AutomationDirect/Destiny Tool/Right Question/Google/ThinBit/Intuitive Foundation/Johnson & Johnson&Harker Upper School,San Jose,California,95129,37.30479897644752,-121.97858387484618,06085,2003,,"Santa Clara County, California",159674.0,77018.0,0.4739,0.9553829989225302,0.06864609510211955
1073,The Force Team,New Hampshire Department of Education/RTX/L3Harris/REV Robotics/Viasat/Alapage/NextMove Technologies/Dr. Diane (Corus Ortho - Shieh LLC)/Online Metals&Hollis Brookline High School&Family/Community,Hollis,New Hampshire,03049,42.7272362,-71.59613279999999,33011,2003,,"Hillsborough County, New Hampshire",100436.0,52243.0,0.428,0.9666864816994019,0.06510219167298664
1076,PiHi Samurai,ZOLLER/Gene Haas Foundation/Michigan Department of Education/Bloomscape/Bank of Ann Arbor&Pioneer High School,Ann Arbor,Michigan,48103,42.24758629999999,-83.8260884,26161,2003,,"Washtenaw County, Michigan",87156.0,51746.0,0.4869,0.9563329029228783,0.13842958634123984
108,SigmaC@T Robotics Team,Motorola Solutions Foundation/Dillard Technology Foundation/Apex Machine Company/Alro Metals/Gene Haas Foundation/Certified Metal Finishing/Custom Precision Technologies/Dillard High School/REV Robotics&Dillard High School,Fort Lauderdale,Florida,33311,26.142147,-80.1763467,12011,1995,,"Broward County, Florida",74534.0,41910.0,0.4878,0.9443480078479437,0.12232563109555886
1086,Blue Cheese,Powertrain Control Solutions / Midas of Richmond / Watson Machine Corp / Showbest Fixture Corp & Deep Run High School,Glen Allen,Virginia,23059,37.665978,-77.5063739,51087,2003,,"Henrico County, Virginia",86397.0,50277.0,0.4689,0.9612427547658144,0.08437701216139008
1089,Team Mercury,Bristol Myers-Squibb/DoD STEM/East Windsor Regional School District/Team Mercury Parent-Mentor Assosciation/Lockheed Martin/TRUMPF Photonics/Oracle & Hightstown High School,Hightstown,New Jersey,08520,40.2695538,-74.5232089,34021,2003,,"Mercer County, New Jersey",96333.0,52101.0,0.5021,0.9386380832282472,0.11073541611339113
10903,The Ionizers,"The Gillemot Foundation/NASA Robotics Alliance Project/Blue Heaven Restaurant, Key West/The Argosy Foundation/Gene Haas Foundation/NASA+Robonauts 118/Team SOS/FIRST Nevada/To The Stars, Inc./BTechSoft/Univ of Nevada, Reno Aerospace and Defense Academy/Little Swan Dancers/ClickBond/SolUp/RFE International, Inc./Corestone Engineering&Family/Community",Reno,Nevada,,39.529919,-119.8142691,32031,2026,,"Washoe County, Nevada",85600.0,46857.0,0.4661,0.9503442806707182,0.10685089828392169
10904,The Circuit Sorcerers,Family/Community,Channelview,Texas,,29.7760599,-95.1146533,48201,2026,,"Harris County, Texas",73104.0,39978.0,0.4997,0.9357693951321783,0.15918066709753084
10905,Team LOVE,Scottsdale Christian Academy/NASA/Wesley Family Foundation/Aspen Systems/Lanphar Mechanical/Romero Wealth Management&Scottsdale Christian Academy,Phoenix,Arizona,,33.4482948,-112.0725488,04013,2026,,"Maricopa County, Arizona",85518.0,44210.0,0.4571,0.953956221163431,0.11250356744752435
10909,CuttingEdge1881,Pike Technologies/Doosan Bobcat/Amtelco/Strand Associates/Peter and Alex Wood/Patty Beulling/Fidelity&Edgewood High School of the Sacred Heart,Madison,Wisconsin,,43.0721661,-89.4007501,55025,2026,,"Dane County, Wisconsin",88108.0,51486.0,0.451,0.9758051452272012,0.10484443194294477
1091,Oriole Assault,Mantz Automation/Triangle Tool/Continental Motors/WI DPI (Department of Public Instruction)/UW-Madison Triangle Science Fraternity/Rockwell Automation/Bradley a Watts brand/Hartford Masonic Lodge No. 120/Hartford Area Foundation/Hartford Community Service Inc/Contact Metals/GE HealthCare/Bank 5 9 /TouchPad Electronics/HED/MSOE/Server Products/Hartford Lions/Hartford Rotary/Piggly Wiggly Hartford&Hartford Union High School,Hartford,Wisconsin,53027,43.3177794,-88.3789862,55131,2003,,"Washington County, Wisconsin",95851.0,48255.0,0.402,0.973048965365329,0.05262271062271062
10910,The Outlaws,Greenway Insitute/Vermont Mutual Insurance/FIRST in VT/Argosy Foundation/Gene Haas Foundation/NASA &Montpelier High School&U-32 Middle & High School&Family/Community,Montpelier,Vermont,,44.26005929999999,-72.5753869,50023,2026,,"Washington County, Vermont",79853.0,45017.0,0.4373,0.9702606817831251,0.09356885611387412
10912,Dragons,Josiah Quincy Upper School,Boston,Massachusetts,,42.3555076,-71.0565364,25025,2026,,"Suffolk County, Massachusetts",92859.0,56920.0,0.5266,0.937839715906911,0.16456921195630167
10913,Robot Wranglers,Texas Workforce Commission&Legacy Ranch High School,Liberty Hill,Texas,,30.6649119,-97.9225161,48491,2026,,"Williamson County, Texas",108309.0,51260.0,0.4111,0.9599995505251833,0.0633872684026039
10918,Bluesteel Dragons,Masterman Julia R Sec Sch,Philadelphia,Pennsylvania,,39.95344697740981,-75.16599389809745,42101,2026,,"Philadelphia County, Pennsylvania",60698.0,37669.0,0.5152,0.9159715366337955,0.22003358368324463
10929,Tarpon Robotics,John Deere/NASA/Odyssea Marine&South Lafourche High School,Cut Off,Louisiana,,29.5427168,-90.3381361,22057,2026,,"Lafourche Parish, Louisiana",63439.0,32900.0,0.4666,0.9454845565956677,0.1799025488052144
10933,Tie Dye Samurai,Family/Community,Gilbert,Arizona,,33.3528264,-111.789027,04013,2026,,"Maricopa County, Arizona",85518.0,44210.0,0.4571,0.953956221163431,0.11250356744752435
10936,Hooverstan,Herbert Hoover High,Glendale,California,,34.1463674,-118.2488703,06037,2026,,"Los Angeles County, California",87760.0,44319.0,0.4972,0.9297188106694895,0.13643018098759088
10937,River Valley RADs+,River Valley Technical Center,Springfield,Vermont,,39.8006593,-89.64493449999999,17167,2026,,"Sangamon County, Illinois",74114.0,42851.0,0.4567,0.9451870551233239,0.1290191162644939
10943,WJH RoboStangs,NASA&West Jones High School,Laurel,Mississippi,,31.6940509,-89.1306124,28067,2026,,"Jones County, Mississippi",51143.0,27896.0,0.4899,0.9641275771412757,0.20790183222011152
10945,Mt Abe Mad CAD-ers,NASA&Mt. Abraham Union High School,Bristol,Vermont,,41.67265180480913,-72.95070128851617,09005,2026,,,,,,,
10949,Metalheads,NASA&Carver HS,Philadelphia,Pennsylvania,,39.95231735922526,-75.16450551007462,42101,2026,,"Philadelphia County, Pennsylvania",60698.0,37669.0,0.5152,0.9159715366337955,0.22003358368324463
10950,The Northern Knights,Colony High School & Family/Community,Palmer,Alaska,,42.1596906,-72.3289472,25013,2026,,"Hampden County, Massachusetts",70535.0,37810.0,0.4707,0.9396921811203837,0.15714625055222187
10960,Eagle Engineers,West Craven High,Vanceboro,North Carolina,,35.3084953,-77.1541194,37049,2026,,"Craven County, North Carolina",64635.0,36745.0,0.4627,0.9548487492042534,0.13905300823832903
10961,Hyper Wave,Argosy Foundation/FIRST in Alabama/Gene Haas Foundation/Sparrow Health/Collins Aerospace&Gulf Shores High School,Gulf Shores,Alabama,,30.2709808,-87.6878789,01003,2026,,"Baldwin County, Alabama",75019.0,40775.0,0.4589,0.96805718779546,0.10514698717595672
10973,Sea Raiders,Family/Community,Westwood,Massachusetts,,34.0588075,-118.4439326,06037,2026,,"Los Angeles County, California",87760.0,44319.0,0.4972,0.9297188106694895,0.13643018098759088
10978,Complete Robotics,The Complete Robotics Foundation,Frankenmuth,Michigan,,43.33338386739358,-83.73815987495598,26145,2026,,"Saginaw County, Michigan",58347.0,33992.0,0.4763,0.9335116457933947,0.18075240308555093
10979,Tiger Robotics,TGR Learning Lab/DoD STEM/Comcast&TGR Foundation,Philadelphia,Pennsylvania,,39.95292357115292,-75.16769711952631,42101,2026,,"Philadelphia County, Pennsylvania",60698.0,37669.0,0.5152,0.9159715366337955,0.22003358368324463
10980,The Deadbolts,Family/Community,Boulder,Colorado,,40.0189728,-105.2747406,08013,2026,,"Boulder County, Colorado",102772.0,60272.0,0.4898,0.9538057940317924,0.11449994773138367
10981,Jo-Bees,NASA/The Boeing Company/Mirrors for Training USA/FPL/Florida Job's Daughters&Job's Daughters,North Port,Florida,,27.074968,-82.20660149999999,12015,2026,,"Charlotte County, Florida",66154.0,40603.0,0.4496,0.9444757609921083,0.0955535275977091
10987,The Legion,Western High,Louisville,Kentucky,,38.2468618,-85.7663724,21111,2026,,"Jefferson County, Kentucky",67849.0,41267.0,0.4821,0.952005119453925,0.14526133381570702
10988,Desert Storm,Family/Community,New River,Arizona,,37.34943224292616,-80.9306629632457,54055,2026,,"Mercer County, West Virginia",47799.0,28201.0,0.4618,0.9598317560462671,0.17977605990224288
10989,Blast Robotics,Eadeh Enterprises/Isolite Corporation/Comcast/DoD STEM&Boy Scouts of America&Conestoga Shs&Family/Community,Berwyn,Pennsylvania,,41.85058739999999,-87.7936685,17031,2026,,"Cook County, Illinois",81797.0,47801.0,0.5028,0.9312331546319416,0.13339116973068246
1099,DiscoTechs,&Brookfield High School,Brookfield,Connecticut,06804,41.4825947,-73.4095652,09001,2003,,,,,,,
10991,PioBytes,Argosy Foundation/ORTOP/NASA/Oregon Trail School District/Gene Haas Foundation/Robonauts Everybot&Sandy High School,Sandy,Oregon,,40.5649781,-111.8389726,49035,2026,,"Salt Lake County, Utah",94658.0,43393.0,0.4297,0.9633191693281045,0.0835852438747877
10993,EP Robotics,"TE Connectivity/NASA/The Gene Haas Foundation/BAE Systems/The Argosy Foundation/Advanced Conversion Technology/The Robonauts/PB-Truss, Inc.&Family/Community",Enola,Pennsylvania,,40.2900885,-76.9338636,42043,2026,,"Dauphin County, Pennsylvania",74159.0,41055.0,0.456,0.9565750999275693,0.12286633890991405
10994,SSES Phenoms,DOD&Sacramento School of Engineering and Science,Alamogordo,New Mexico,,32.9007766,-105.9601797,35035,2026,,"Otero County, New Mexico",52717.0,28186.0,0.4318,0.9093178980819431,0.19950213371266004
10995,ACS Eagle Robotics,American Christian School North Campus,Rockaway,New Jersey,,40.90216969999999,-74.5140168,34027,2026,,"Morris County, New Jersey",134929.0,69226.0,0.4552,0.9479254498444831,0.05086991290924499
10996,SRC Robotics,Santa Rosa County School District,Milton,Florida,,42.2483996814284,-71.0643611141288,25021,2026,,"Norfolk County, Massachusetts",126497.0,69508.0,0.4843,0.9506661768962993,0.06628655601975898
10997,St. George,Family/Community,Jersey City,New Jersey,,40.7195342,-74.0430133,34017,2026,,"Hudson County, New Jersey",90032.0,53998.0,0.5006,0.9411423380985842,0.14801935396521132
11,MORT,"National Defense Education Program/Westec Plastics Corporation/Fluent Inc./Nokia/Chameleon Designs/MegaPhase/Mt. Olive School District/Pereira Wealth Management, LLC/L3 Harris Foundation&Mt Olive High School",Flanders,New Jersey,07836,40.8418677,-74.7161489,34027,1997,,"Morris County, New Jersey",134929.0,69226.0,0.4552,0.9479254498444831,0.05086991290924499
1100,Inverse Polarity,Intel/Bayer/Gene Haas Foundation/The Hecker Family/Bolt Depot/Autodesk/Solidworks&Algonquin Regional High School,Northborough/Southborough,Massachusetts,01532,42.3197933,-71.6423322,25027,2003,,"Worcester County, Massachusetts",93561.0,47780.0,0.4559,0.9465652767189632,0.10332579761638618
11003,maui cap,Civil Air Patrol,Kihei,Hawaii,,20.7399409,-156.4541873,15009,2026,,"Maui County, Hawaii",95076.0,44403.0,0.4541,0.9444509277628661,0.09797473480130804
1102,M'Aiken Magic,Savannah River Nuclear Solutions / Savannah River National Laboratory / Crane Fund / SHAW Floors / BAE Systems / Merrick Corporation / Generac / Gene Haas Foundation / Novelis / Savannah River Mission Completion / The Thrifty Bot / Aiken County Public Schools &Aiken High School&MAiken Magic STEM Foundation,Aiken,South Carolina,30901,33.4577032,-81.9643913,13245,2003,,"Richmond County, Georgia",53197.0,30209.0,0.4866,0.921001701403658,0.21135405461895707
11024,Hypernova Robotics,Science Academy STEM Magnet,North Hollywood,California,,34.1866635,-118.3877732,06037,2026,,"Los Angeles County, California",87760.0,44319.0,0.4972,0.9297188106694895,0.13643018098759088
11025,Garage Gang,Family/Community,Bozeman,Montana,,45.67931189999999,-111.037259,30031,2026,,"Gallatin County, Montana",87454.0,51148.0,0.4724,0.9765559935594914,0.10210406548245762
11037,Clarksville Cyber Storm,Tn Valley Robotics/Hack Club&Clarksville Christian School,Clarksville,Tennessee,,36.5297706,-87.3611694,47125,2026,,"Montgomery County, Tennessee",72365.0,33645.0,0.4007,0.9453210830781197,0.1163705697622252
1108,Panther Robotics,The Baehr Foundation/Trane/Michael and Lorretta Verhaeghe/Dr. Beth Petelin/Polaris Electronics/Gene Haas Foundation/REV Robotics/Optimum/G.K. Smith and Sons/Novelis/Intuitive Foundation/Westfield Energy/A Razors Edge Tattoo/Emma Ure/Dr. Greg and Karen Windler/KC STEM Alliance/Holman/FG Cardinal/Precision Husky/University of Kansas Health System - Paola/Jennifer and Matt Meek/Paul and Kathy Haley/Bruce Kelly Memorial Foundation/Dean Scherman Memorial Fund/City of Paola&Paola High School,Paola,Kansas,66071,38.5722353,-94.8791294,20121,2003,,"Miami County, Kansas",88000.0,41736.0,0.4048,0.9723309111235326,0.06666470622831265
11091,JMA Patriots,Jefferson Montessori,Carlsbad,New Mexico,,33.1640648,-117.3410819,06073,2026,,"San Diego County, California",102285.0,49891.0,0.4594,0.9376886669842963,0.1035269729034036
11096,Δt,Adept Fasteners/Gene Haas Foundation/Argosy Foundation/P&H Metal Products&Canyon High&William S. Hart High&Saugus High&Golden Valley High&Rancho Pico Junior High&West Ranch High,Santa Clarita,California,,34.3916641,-118.542586,06037,2026,,"Los Angeles County, California",87760.0,44319.0,0.4972,0.9297188106694895,0.13643018098759088
111,WildStang,Motorola Solutions Foundation/WildStang Robotics Support Assocation (WRSA)/West Coast Products/ATS Life Sciences/Nordson/Woodward/Gene Haas Foundation/Marcres Metalwerks/Trustmark/ServiceMater - Restore/Slack/Honeywell/AMT/Otus/Automatic Precision&Buffalo Grove High School&Elk Grove High School&John Hersey High School&Prospect High School&Rolling Meadows High School&Wheeling High School&Township High School District 214,Arlington Heights,Illinois,60005,42.06554029999999,-87.9873724,17031,1996,,"Cook County, Illinois",81797.0,47801.0,0.5028,0.9312331546319416,0.13339116973068246
11100,Team Epsilon,Craig and Christine Hughes Family Foundation/Gene Haas Foundation/Simoncic's Opportunities in Arts and Robotics&Family/Community,Phoenix,Arizona,,33.44822548030607,-112.0714277860728,04013,2026,,"Maricopa County, Arizona",85518.0,44210.0,0.4571,0.953956221163431,0.11250356744752435
11102,Real Steel,Parkview Magnet High School,Little Rock,Arkansas,,34.7428286,-92.2762904,05119,2026,,"Pulaski County, Arkansas",60385.0,39780.0,0.5117,0.9506495507060334,0.1621972473078712
11103,Redshift Robotics,NASA/Florida Eco-Adventures&Wiregrass Ranch High School,Wesley Chapel,Florida,,28.240527,-82.3272551,12101,2026,,"Pasco County, Florida",67384.0,37757.0,0.4601,0.9510326764961224,0.11096565943293367
11104,Phoenix Phanatics,Family/Community,East Brunswick,New Jersey,,40.438555,-74.39259799999999,34023,2026,,"Middlesex County, New Jersey",109028.0,49417.0,0.4342,0.9359648181915693,0.08499631688207326
11107,FARMBots,Union Parish High School,Farmerville,Louisiana,,32.7734728,-92.4056985,22111,2026,,"Union Parish, Louisiana",45743.0,27835.0,0.4922,0.9422795908426692,0.28599576375548
1111,Power Hawks Robotics,"NASA/Anne Arundel County Public Schools/Cornfed George Enterprises, LLC/Gene Haas Foundation/Maryland Space Business Round Table/Custom Software Systems&South River Senior High School",Edgewater,Maryland,21037,38.94056399999999,-76.5629398,24003,2003,,"Anne Arundel County, Maryland",120324.0,58462.0,0.4217,0.9604452798372041,0.054870578017649156
11131,Brainstorm,Harris Hill Automation&Family/Community,Windham,Maine,,42.3073065,-74.2520875,36039,2026,,"Greene County, New York",74011.0,41292.0,0.4699,0.9673608952440161,0.11006499287749288
11132,Rambotics Inc.,Waltrip H S,Houston,Texas,,29.759878816583363,-95.36961696126173,48201,2026,,"Harris County, Texas",73104.0,39978.0,0.4997,0.9357693951321783,0.15918066709753084
11139,Blackhawk Robotics #11139,PMI-Processed Metals Innovators&Bloomer High,Bloomer,Wisconsin,,45.1002389,-91.4887724,55017,2026,,"Chippewa County, Wisconsin",74009.0,38212.0,0.4168,0.9703853125182716,0.09224843825836451
11146,CitrusDuckz,New Garden Friends School,Greensboro,North Carolina,,36.0725632,-79.791534,37081,2026,,"Guilford County, North Carolina",66027.0,37845.0,0.4793,0.9526473569410071,0.15221946634288827
11157,Winnacunnet,Winnacunnet High School,Hampton,New Hampshire,,37.0298687,-76.34522179999999,51650,2026,,"Hampton city, Virginia",67758.0,36787.0,0.4357,0.9368624823170277,0.1303733647914522
11158,Superior FRC,Superior High,Superior,Wisconsin,,47.723087,-86.940716,26083,2026,,"Keweenaw County, Michigan",53893.0,46593.0,0.4879,0.9521531100478469,0.08701854493580599
11161,SkyForge Griffins,North Wake College and Career Academy,Wake Forest,North Carolina,,35.9798734,-78.50972279999999,37069,2026,,"Franklin County, North Carolina",71386.0,33957.0,0.4162,0.9445403899721448,0.10090728664587469
11167,Team Titan,Argosy Foundation/Gene Haas Foundation/SCDOE/York Technical College&Family/Community,Rock Hill,South Carolina,,34.9237871,-81.0281674,45091,2026,,"York County, South Carolina",83060.0,43442.0,0.4395,0.9555592213790828,0.08887848262603999
11169,ERA Delta,Antonian College Preparatory High School,San Antonio,Texas,,29.4251905,-98.4945922,48029,2026,,"Bexar County, Texas",70571.0,35795.0,0.4615,0.9452596994412841,0.1469821127985054
11171,Hi Gear,Northeast High,Kansas City,Missouri,,39.0997265,-94.5785667,20209,2026,,"Wyandotte County, Kansas",60582.0,28523.0,0.4255,0.9460076872869678,0.1750016627667229
11173,Star Force,Family/Community,Chicago,Illinois,,41.88325,-87.6323879,17031,2026,,"Cook County, Illinois",81797.0,47801.0,0.5028,0.9312331546319416,0.13339116973068246
11174,Danes Robotics,Denmark High School,Alpharetta,Georgia,,34.0746204,-84.29228619999999,13117,2026,,"Forsyth County, Georgia",138000.0,55936.0,0.3901,0.9664987423592052,0.04522828466941878
11175,Tidal Shock,NASA/Argosy Foundation/Vermont Academy of Science & Engineering&Spaulding Union High School,Barre,Vermont,,44.1966858,-72.5013944,50023,2026,,"Washington County, Vermont",79853.0,45017.0,0.4373,0.9702606817831251,0.09356885611387412
11176,RoboRabbits,Avnet/Mesa Public Schools/AZFirst&Mesa High School,Mesa,Arizona,,33.414267060411746,-111.83004739899164,04013,2026,,"Maricopa County, Arizona",85518.0,44210.0,0.4571,0.953956221163431,0.11250356744752435
11178,Revelation,NASA/Kiewit Corporation/Gene Haas Foundation&Angleton Christian School,Angleton,Texas,,29.1643904,-95.4334243,48039,2026,,"Brazoria County, Texas",95155.0,41681.0,0.4181,0.9546875083758155,0.07342270223331795
11179,The Power of Friendship,NASA/REV Robotics&Apex Friendship High,Apex,North Carolina,,35.732652,-78.85028559999999,37183,2026,,"Wake County, North Carolina",101763.0,52949.0,0.4486,0.9584709406304517,0.07931606432353402
1119,Pup Cups,Walpole High School & Family/Community,Walpole,Massachusetts,,42.1366402,-71.24779269999999,25021,2003,,"Norfolk County, Massachusetts",126497.0,69508.0,0.4843,0.9506661768962993,0.06628655601975898
11195,VOLT,Family/Community,O Fallon,Illinois,,38.592323,-89.910991,17163,2026,,"St. Clair County, Illinois",70178.0,37824.0,0.4562,0.9432094197886338,0.13555057908252177
112,Plus One,Motorola Solutions Foundation/WildStang Robotics Support Assocation (WRSA)/West Coast Products/ATS Life Sciences/Nordson/Woodward/Gene Haas Foundation/Marcres Metalwerks/Trustmark/ServiceMater - Restore/Slack/Honeywell/AMT/Otus/Automatic Precision&Buffalo Grove High School&Elk Grove High School&John Hersey High School&Prospect High School&Rolling Meadows High School&Wheeling High School&Township High School District 214,Arlington Heights,Illinois,60004,42.0883603,-87.98062650000001,17031,1998,,"Cook County, Illinois",81797.0,47801.0,0.5028,0.9312331546319416,0.13339116973068246
11200,Panther Prime,Frenship Memorial High School,Lubbock,Texas,,33.5845235,-101.8552139,48303,2026,,"Lubbock County, Texas",63367.0,35170.0,0.4835,0.9532299456047937,0.1720420857596612
11210,MACHS Raiders 1,Mount Ayr High School,Mount Ayr,Iowa,,40.7147147,-94.235232,19159,2026,,"Ringgold County, Iowa",69821.0,37108.0,0.4341,0.978086809945217,0.09009613234965348
11211,Apex Dimension,Argosy Foundation&Family/Community,Rockville,Maryland,,39.0831681,-77.1528636,24031,2026,,"Montgomery County, Maryland",128733.0,66124.0,0.4676,0.9519840378080587,0.07076990576475525
11212,BioHazard,The Boeing Company/Burke Foundation/The Gene Haas Foundation/AzFirst&Desert Vista High School&Mountain Pointe High School&Family/Community,Maricopa ,Arizona,,33.2917968,-112.4291464,04013,2026,,"Maricopa County, Arizona",85518.0,44210.0,0.4571,0.953956221163431,0.11250356744752435
11214,[CY]BEARCATS robotics,Bainbridge High School,Bainbridge ,Georgia,,47.62487910000001,-122.5210008,53035,2026,,"Kitsap County, Washington",98546.0,50367.0,0.4306,0.9518762374681794,0.08295728066487848
11220,The Royal Guard,Lockheed Martin/Robonauts&Arapahoe High School,Centennial,Colorado,,39.5807452,-104.8771726,08005,2026,,"Arapahoe County, Colorado",97215.0,51942.0,0.4553,0.9531868845944197,0.0850319671941959
11221,Edna Karr Robotics,Edna Karr High School,New Orleans,Louisiana,,29.9508941,-90.0758356,22071,2026,,"Orleans Parish, Louisiana",55339.0,39698.0,0.5591,0.9215802573743579,0.22631894319624862
11222,"STAXX, Sponsored by NASA",Jones High,Orlando,Florida,,28.537557424752073,-81.37972689651609,12095,2026,,"Orange County, Florida",77011.0,39640.0,0.479,0.9452592191775228,0.13045405267293633
11223,The Whistlepunks,Bemidji FIRST LEGO League Robotics/NASA/Bemidji Area Schools/Enbridge/Ottertail Power Company/Robonauts/North Country Vocational Cooperative Center/Argosy Foundation/Bernick's Family Foundation/Paul Bunyan Communications/Garfield Lake Ice Racers&Bemidji Middle&Family/Community&Bemidji FIRST LEGO League Robotics,Bemidji,Minnesota,,47.471573,-94.8826861,27007,2026,,"Beltrami County, Minnesota",67257.0,34429.0,0.4409,0.9487179487179487,0.15957111321349732
11224,Azreal,Bezos Foundation/Somerset Independent School District&Somerset H S&Family/Community,VON ORMY,Texas,,29.2799247,-98.6539275,48029,2026,,"Bexar County, Texas",70571.0,35795.0,0.4615,0.9452596994412841,0.1469821127985054
11225,Wolfimus,Camden Prep Inc.,Camden,New Jersey,,39.9425241,-75.1164689,42101,2026,,"Philadelphia County, Pennsylvania",60698.0,37669.0,0.5152,0.9159715366337955,0.22003358368324463
11230,White Hat Hackers,Family/Community,Los Altos,California,,37.3813639,-122.1142578,06085,2026,,"Santa Clara County, California",159674.0,77018.0,0.4739,0.9553829989225302,0.06864609510211955
11235,Golden Ratio,Northeast Career and Technical Academy HS,North Las Vegas,Nevada,,36.1988592,-115.1175013,32003,2026,,"Clark County, Nevada",73845.0,38654.0,0.4697,0.9257664984431849,0.1320819368165142
11241,PRAIRIE,RTX/BAE/John Deere/Robonauts Everybot/Gene Haas Foundation/Argosy & Hack Club Bank/NASA&Prairie High School&Prairie Point,Cedar Rapids,Iowa,,41.9778795,-91.6656232,19113,2026,,"Linn County, Iowa",76421.0,42497.0,0.4459,0.9631529253616694,0.09857660132351105
11242,Golden Eagle Mechanics,NASA/Kiewit Corporation/Bechtel&Freeman High School,Katy,Texas,,29.7857765,-95.8245093,48157,2026,,"Fort Bend County, Texas",113409.0,46693.0,0.4238,0.9499769162906994,0.07175347893879178
11243,Cyber Knights,Las Lomas High,Walnut Creek,California,,37.9100783,-122.0651819,06013,2026,,"Contra Costa County, California",125727.0,61727.0,0.4708,0.9408482271228271,0.08251568308449332
11246,Tiger Botz,Spencer High School,Spencer,Iowa,,37.9832621,-87.0224442,18147,2026,,"Spencer County, Indiana",70890.0,36718.0,0.4139,0.9659057219092796,0.06635216900830684
11247,Alisal High School Robotics Team,Alisal High,Salinas,California,,36.67822647590038,-121.65525521142978,06053,2026,,"Monterey County, California",94486.0,39523.0,0.4627,0.9486635596936538,0.12581479466697207
11251,Alpha Phi Alpha OBL,Family/Community,Clearwater,Florida,,27.9655722,-82.7958948,12103,2026,,"Pinellas County, Florida",70293.0,46580.0,0.4883,0.9544073761550969,0.11441274404323994
11252,1st ACT,George Washington High,Danville,Virginia,,36.5859718,-79.39502279999999,51590,2026,,"Danville city, Virginia",42778.0,27537.0,0.4906,0.9506018623665683,0.24968040121939228
11254,FIRST Ignition,Family/Community,Ladson,South Carolina,,32.9857275,-80.1098123,45035,2026,,"Dorchester County, South Carolina",76896.0,37279.0,0.4158,0.9534439086170783,0.11524956417452802
11258,Honey Badgers,Argosy Foundation/3M&Family/Community,CUMBERLAND,Wisconsin,,39.6528654,-78.7625185,24001,2026,,"Allegany County, Maryland",57393.0,30046.0,0.4428,0.941369383813723,0.1723399385259303
1126,SPARX,Webster Central School District/Xerox Corporation/Bosch&Schroeder High School&Webster Thomas High School,Webster,New York,14580,43.2122851,-77.4299939,36055,2003,,"Monroe County, New York",74409.0,43137.0,0.4669,0.9489484214867198,0.1305751378755181
11260,Ursuline Robotics,Ursuline Academy High School,New Orleans,Louisiana,,29.9513237875191,-90.07567501295942,22071,2026,,"Orleans Parish, Louisiana",55339.0,39698.0,0.5591,0.9215802573743579,0.22631894319624862
11261,Mount Toro High School Robotics Team,Mount Toro High,Salinas,California,,36.6777372,-121.6555013,06053,2026,,"Monterey County, California",94486.0,39523.0,0.4627,0.9486635596936538,0.12581479466697207
11265,Rockbotics -FRC,Argosy/Mississippi Power/Data Solution&St Stanislaus,Bay Saint Louis,Mississippi,,47.904908,-92.394371,27137,2026,,"St. Louis County, Minnesota",69455.0,39778.0,0.4544,0.95532827837536,0.1339111334448871
11269,Batteries Not Included,South Burlington High School,South Burlington,Vermont,,44.4654257,-73.17718719999999,50007,2026,,"Chittenden County, Vermont",94310.0,50552.0,0.4451,0.9629086820787199,0.10439691700300505
11274,Warrior Robotics,West Campus,Sacramento,California,,38.5781342,-121.4944209,06067,2026,,"Sacramento County, California",88724.0,41989.0,0.4452,0.9355687179500001,0.12615334884015095
11275,Defenders 1,Bryan Station High School,Lexington,Kentucky,,38.040990820356186,-84.51650551413029,21067,2026,,"Fayette County, Kentucky",67631.0,42272.0,0.4909,0.9499946418801924,0.1568367300709982
11276,Kenner Robotics,Family/Community,Kenner,Louisiana,,29.9940924,-90.2417434,22051,2026,,"Jefferson Parish, Louisiana",65246.0,37062.0,0.483,0.9411489765338246,0.16280783410245708
11277,ARC,Aldine H S,Houston,Texas,,29.7600771,-95.3701108,48201,2026,,"Harris County, Texas",73104.0,39978.0,0.4997,0.9357693951321783,0.15918066709753084
11282,Tri-Force,Deland High School,Deland,Florida,,29.028318,-81.3031179,12127,2026,,"Volusia County, Florida",66581.0,37171.0,0.448,0.9599648430603425,0.1224289592760181
11283,Melrose Gear Grinders,Melrose Secondary,Melrose,Minnesota,,42.4547874,-71.06546999999999,25025,2026,,"Suffolk County, Massachusetts",92859.0,56920.0,0.5266,0.937839715906911,0.16456921195630167
11285,Purple Autobots,CS Brown High - STEM Program,Winton,North Carolina,,36.3957098,-76.93190349999999,37091,2026,,"Hertford County, North Carolina",47472.0,27562.0,0.4818,0.9475957712856655,0.2141513995594477
11287,Canton Career Center,Canton Career Center,Canton,Mississippi,,40.7973776,-81.37699649999999,39151,2026,,"Stark County, Ohio",65740.0,35802.0,0.4412,0.9612650211890513,0.12743562930803218
11296,Merced Fusion Robotics,Golden Valley High & Atwater High & Livingston High & Merced High & Buhach Colony High & El Capitan High,Merced,California,,37.302947,-120.484268,06047,2026,,"Merced County, California",65044.0,27711.0,0.4631,0.8924487689340898,0.184038478667498
11297,Iron Corsairs,Lumberton Senior High,Lumberton,North Carolina,,34.61757442229747,-79.00686303493107,37155,2026,,"Robeson County, North Carolina",40318.0,22925.0,0.5107,0.9372752784354994,0.28774682651622
11308,Daniel Morgan Patriots,Daniel Morgan Technology Center,Spartanburg,South Carolina,,34.9515959,-81.9327167,45083,2026,,"Spartanburg County, South Carolina",64195.0,33427.0,0.453,0.9567896024981011,0.14502885008556587
11309,Highlands High School Robotics,Highlands H S,San Antonio,Texas,,29.424774531969987,-98.49518086923445,48029,2026,,"Bexar County, Texas",70571.0,35795.0,0.4615,0.9452596994412841,0.1469821127985054
11311,The Stags,Argosy Foundation/AT&T&Berkeley High,Moncks Corner,South Carolina,,33.1960027,-80.01313739999999,45015,2026,,"Berkeley County, South Carolina",82327.0,39727.0,0.4282,0.9634970977200646,0.10317311142627685
11312,Royal Flush,Bcluw High School,Conrad,Iowa,,38.79525586477732,-106.53610418421084,08051,2026,,"Gunnison County, Colorado",77358.0,47042.0,0.4512,0.9633716617210683,0.13083013732525053
11318,Freedom Robotics,NASA&Freedom High,Chantilly,Virginia,,38.88698189999999,-77.4390375,51600,2026,,"Fairfax city, Virginia",132774.0,62800.0,0.4549,0.9553506075245206,0.09912117627175934
11321,Purple Knight Robotics,St Augustine High School,New Orleans,Louisiana,,29.95144454912104,-90.07675488136202,22071,2026,,"Orleans Parish, Louisiana",55339.0,39698.0,0.5591,0.9215802573743579,0.22631894319624862
11331,TarryBots,Sleepy Hollow Middle School & Sleepy Hollow High School,Tarrytown,New York,,41.0762077,-73.85874609999999,36119,2026,,"Westchester County, New York",118411.0,70607.0,0.5351,0.9398564584240726,0.08879149519468665
11336,Anomaly,Sanford Regional Technical Center,Sanford,Maine,,28.80192309512117,-81.27116628886617,12117,2026,,"Seminole County, Florida",83030.0,44349.0,0.4467,0.9590653846153846,0.09207692373177148
11337,Mystery Machines,Toyota Boshoku&South Side High School,Jackson,Tennessee,,42.33401799819004,-122.766947817649,41029,2026,,"Jackson County, Oregon",71443.0,38797.0,0.456,0.9457217486150579,0.1243185140988445
11342,Scotlandville Magnet Robotics,Scotlandville Magnet High School,Baton Rouge,Louisiana,,30.4514677,-91.1871466,22121,2026,,"West Baton Rouge Parish, Louisiana",87320.0,38107.0,0.4199,0.9341658846459251,0.15974725887381527
11343,JPS High School Robotics,Murrah High School & Family/Community,Jackson,Mississippi,,42.33396427644568,-122.76419556049989,41029,2026,,"Jackson County, Oregon",71443.0,38797.0,0.456,0.9457217486150579,0.1243185140988445
11345,Long Beach RoboBearcats,Long Beach Senior High School,Long Beach,Mississippi,,33.76820443507289,-118.19482160493408,06059,2026,,"Orange County, California",113702.0,52816.0,0.4655,0.9465532251259127,0.09485842405883985
11347,Bronco Brigade,Lind-Ritzville High School,Lind,Washington,,46.97101531585958,-118.61421918801882,53001,2026,,"Adams County, Washington",65042.0,25934.0,0.4439,0.9594455264062322,0.2048892358739143
11350,Guilford Gearheads,Home School,Jessup,Maryland,,39.1492746,-76.7752493,24027,2026,,"Howard County, Maryland",146982.0,65860.0,0.414,0.9638331456829371,0.05112789681927959
11353,Visionary Sparks,Northwest Halifax Collegiate and Technic & Halifax County Early College High,Halifax,North Carolina,,36.6945049,-78.9288242,51083,2026,,"Halifax County, Virginia",49244.0,27115.0,0.4562,0.9601860334014516,0.17947080291970802
11361,ORA Raven Bots,Old Redford Academy High,Detroit,Michigan,,42.330683521493285,-83.04352740877867,26163,2026,,"Wayne County, Michigan",59521.0,33956.0,0.4895,0.9132351507580325,0.20119497511085738
11363,TBD,Boys & Girls Clubs of America,Orlando,Florida,,28.5383832,-81.3789269,12095,2026,,"Orange County, Florida",77011.0,39640.0,0.479,0.9452592191775228,0.13045405267293633
11366,Red Devil's Redemption,Avon Grove HS,West Grove,Pennsylvania,,39.8220535,-75.82744129999999,10003,2026,,"New Castle County, Delaware",89901.0,46990.0,0.4527,0.9509244323117012,0.1020354277954801
11368,SCTC ZettaBots,Argosy Foundation/SCDOE&Sumter Career and Technology Center,Sumter,South Carolina,,33.9204354,-80.3414693,45085,2026,,"Sumter County, South Carolina",55990.0,29372.0,0.4569,0.9267612657539215,0.16359898178970042
11377,Knightmare Robotics,Lake Norman Charter,Huntersville,North Carolina,,35.41107,-80.84271199999999,37025,2026,,"Cabarrus County, North Carolina",86084.0,40652.0,0.438,0.9548007335363657,0.08921248713071701
1138,Eagle Engineering,NASA JPL/L3 Harris/Comcast NBCUniversal/The Gene Haas Foundation/Raising Cane's/Avant Garde Xotics/Solidworks/Ether Parts/The Rice Family/Monday.com/Galpin Ford&Chaminade College Prep School,Canoga Park,California,91304,34.2249609,-118.6556478,06037,2003,,"Los Angeles County, California",87760.0,44319.0,0.4972,0.9297188106694895,0.13643018098759088
11386,Climax-Scotts Panther Bots,Climaxscotts High School,Climax,Michigan,,38.7945952,-106.5348379,08051,2026,,"Gunnison County, Colorado",77358.0,47042.0,0.4512,0.9633716617210683,0.13083013732525053
11387,G.L.E.A.M. - Grass Lake Engineering and Mechanics,Grass Lake Education Foundation/The Copper Nail/Grass Lake American Legion Post 252/Grass Lake VFW #10194/Tenneco/IHI Turbo/Jackson Pediatric Dentistry/Argosy Foundation/First in Michigan&Grass Lake High School,Grass Lake,Michigan,,42.2513671,-84.2131883,26075,2026,,"Jackson County, Michigan",65004.0,34834.0,0.4498,0.9419090514434556,0.1216903500454217
11398,Shark Bytes,OrthoSC/Plants Direct & St. James High,Murrells Inlet,South Carolina,,33.5510021,-79.0414261,45043,2026,,"Georgetown County, South Carolina",66734.0,43928.0,0.4989,0.948518167916697,0.14413435960397286
11399,Timber Tech,Eau Claire High School,Eau Claire,Michigan,,44.811349,-91.4984941,55035,2026,,"Eau Claire County, Wisconsin",71834.0,40845.0,0.4411,0.9688546717992301,0.1154496000625055
114,Eaglestrike,Google/Grammarly/Haas Automation/Intuitive Surgical/Beam On Technology/Hawk Ridge Systems/Netgear/SolidWorks/Los Altos High School PTSA/Los Altos High School&Los Altos High,Los Altos,California,94022,37.3694009,-122.1405413,06085,1997,,"Santa Clara County, California",159674.0,77018.0,0.4739,0.9553829989225302,0.06864609510211955
11405,RoboHawks,Hazelwood Central High,Florissant,Missouri,,38.789217,-90.322614,29189,2026,,"St. Louis County, Missouri",81340.0,51085.0,0.4963,0.9579732884313651,0.09591286975839816
11407,Sturgis Trojans,Sturgis High School,Sturgis,Michigan,,44.4097069,-103.5090786,46093,2026,,"Meade County, South Dakota",74161.0,36301.0,0.3991,0.9648976982097187,0.07647942119991809
11409,Alchemist's Return,The Hack Foundation&Family/Community,Torrington,Connecticut,,41.8003049,-73.1211715,09005,2026,,,,,,,
11415,Storm Surge,Family/Community,Seaford,Virginia,,38.64053613435129,-75.6106698178329,10005,2026,,"Sussex County, Delaware",78162.0,44963.0,0.4564,0.948778551743206,0.115000449923513
11417,Nano Knights,North Lincoln High,Denver,North Carolina,,39.73985435774265,-104.9919595478331,08031,2026,,"Denver County, Colorado",91681.0,61202.0,0.4883,0.9540111283837143,0.11210627494737982
11423,Team IIA,International Islamic Academy,Detroit,Michigan,,42.32971819999999,-83.0424533,26163,2026,,"Wayne County, Michigan",59521.0,33956.0,0.4895,0.9132351507580325,0.20119497511085738
11424,Boa Constructors,Argosy Foundation/AT&T&Cane Bay High,Summerville,South Carolina,,33.0188816,-80.1758171,45035,2026,,"Dorchester County, South Carolina",76896.0,37279.0,0.4158,0.9534439086170783,0.11524956417452802
11425,Byteforge,Colonial Heights Technical Center,Colonial Heights,Virginia,,37.244039,-77.4102607,51570,2026,,"Colonial Heights city, Virginia",76250.0,38272.0,0.4213,0.9631693989071038,0.09570095534325705
11431,LPS Tigers,Lawrence Jrsr High School,Lawrence,Michigan,,34.567428,-87.30161319999999,01079,2026,,"Lawrence County, Alabama",60040.0,31189.0,0.4382,0.9794441814862398,0.13740318350917852
11435,St. Peter's High School RaiderBots,St Peters Lutheran School,Big Rapids,Michigan,,43.697090234481145,-85.48228978230502,26107,2026,,"Mecosta County, Michigan",57774.0,28744.0,0.4121,0.9501747766742495,0.19166206950902356
11436,CougarBots,Canterbury School,Fort Myers,Florida,,26.6409247,-81.8605575,12071,2026,,"Lee County, Florida",73099.0,43365.0,0.4761,0.9583552668421348,0.11727995674661795
11437,Addison Panthers,Addison High School,Addison,Michigan,,32.96179,-96.8291685,48113,2026,,"Dallas County, Texas",74149.0,41272.0,0.4919,0.9511229388811968,0.13986837334966393
11440,Casman Wildcats,Casman Alternative Academy,Manistee,Michigan,,44.2444473,-86.324253,26101,2026,,"Manistee County, Michigan",60879.0,34636.0,0.4501,0.9377684451656009,0.1177282999916297
11443,Ferrum Nexus,Virginia Episcopal School,Lynchburg,Virginia,,37.4148819,-79.1422071,51680,2026,,"Lynchburg city, Virginia",59808.0,30004.0,0.4564,0.9496318345605514,0.17387568449260166
11444,Cougar Claw Robotics,Lansing Catholic High School,Lansing,Michigan,,42.73359929999999,-84.55386639999999,26065,2026,,"Ingham County, Michigan",64354.0,37347.0,0.4748,0.9365035972182402,0.16384037732568907
11455,Britton Deerfield Schools Robotics Club,Britton Deerfield Schoolsbritton Building,Britton,Michigan,,45.7916192,-97.7509366,46091,2026,,"Marshall County, South Dakota",72500.0,42601.0,0.4583,0.9891647855530474,0.07861189801699717
11456,UMWACC Ruff Creek RoboMiners,UMWA Career Centers Inc,Prosperity,Pennsylvania,,34.2093079,-81.5331602,45071,2026,,"Newberry County, South Carolina",59670.0,33073.0,0.4583,0.963777490297542,0.16010976471227517
11457,INVEST,Invest Roosevelt Alternative High School,Hazel Park,Michigan,,42.4625362,-83.1040912,26163,2026,,"Wayne County, Michigan",59521.0,33956.0,0.4895,0.9132351507580325,0.20119497511085738
11458,John Glenn Robotics,Willey's Bay Tool Inc. /Batteries Plus Store 318&John Glenn High School,Bay City,Michigan,,43.59470444478023,-83.89050357190025,26017,2026,,"Bay County, Michigan",60523.0,34858.0,0.4352,0.9543337363486809,0.14030390384521424
11459,St. Augustine Robotics,St Augustine High School,San Diego,California,,32.715738,-117.1610838,06073,2026,,"San Diego County, California",102285.0,49891.0,0.4594,0.9376886669842963,0.1035269729034036
11460,Olivet Eaglebots,Olivet High School,Olivet,Michigan,,42.4420225982396,-84.9234722705268,26025,2026,,"Calhoun County, Michigan",60385.0,33239.0,0.4469,0.9323920502158205,0.1419690628401478
11461,Covenant SW,Covenant House Academy Detroit Southwest Site,Detroit,Michigan,,42.33144503418137,-83.04262185476878,26163,2026,,"Wayne County, Michigan",59521.0,33956.0,0.4895,0.9132351507580325,0.20119497511085738
11462,Morenci Robotics 1,Morenci Middle and High School,Morenci,Michigan,,33.0508859,-109.3280282,04011,2026,,"Greenlee County, Arizona",75239.0,32028.0,0.3885,0.9645955451348183,0.10794730131746706
11463,Sacred Heart Cathedral Prep Robotics,Sacred Heart Cathedral Preparatory,San Francisco,California,,37.7749295,-122.4194155,06075,2026,,"San Francisco County, California",141446.0,90285.0,0.5181,0.943759657186893,0.10582881322583858
11464,Bristol Eastern,Bristol Eastern High School,Bristol,Connecticut,,41.67176480000001,-72.9492703,09005,2026,,,,,,,
11465,Hawikku Robotics,Hawikku/Major Market Inc.&Family/Community,Zuni,New Mexico,,35.0694767,-108.8484168,35031,2026,,"McKinley County, New Mexico",44496.0,19580.0,0.5005,0.9057971014492754,0.3568363925669148
11466,Mega-CAPs,Concord Academy Petoskey,Petoskey,Michigan,,45.3749899,-84.95852409999999,26047,2026,,"Emmet County, Michigan",73724.0,45122.0,0.4705,0.9644851205894204,0.09342601669488756
11467,HSHP 1HeartBeat,Argosy Foundation/SCDOE&Orangeburg High School for Health Professions,Orangeburg,South Carolina,,33.49169464978388,-80.85675771270188,45075,2026,,"Orangeburg County, South Carolina",43214.0,25682.0,0.4944,0.9065362783116956,0.2386278617387401
11468,Lisbon Panther Robotics,Lisbon Regional School (High),Lisbon,New Hampshire,,40.7720044,-80.7681336,39029,2026,,"Columbiana County, Ohio",58474.0,32265.0,0.4486,0.9519584729288166,0.13853438049658445
11469,Ignis Mechanica,Family/Community,Abilene,Texas,,32.4534878,-99.7312829,48441,2026,,"Taylor County, Texas",66406.0,33332.0,0.4463,0.9772368651744492,0.1351716953971021
11473,Wixom Christian Warrior Robotics,Wixom Christian School,Wixom,Michigan,,42.5247555,-83.5363268,26125,2026,,"Oakland County, Michigan",95296.0,55114.0,0.4651,0.9524251054472043,0.07693796589437044
11474,SEED Bulldogs Byte!,The Seed School of Miami,Miami,Florida,,25.7616798,-80.1917902,12086,2026,,"Miami-Dade County, Florida",68694.0,37858.0,0.5134,0.956113801238301,0.14932170150631757
11475,DawgBots,Argosy Foundation/SCDOE&North Eastern Tech,Hartsville,South Carolina,,34.3742857,-80.07333129999999,45031,2026,,"Darlington County, South Carolina",47419.0,30281.0,0.5029,0.9314110039224001,0.2029451398697904
1148,Harvard Westlake Robotics,Gene Haas Foundation/Jet Zero&Harvard-Westlake Upper School,Studio City,California,91604,34.15855164814793,-118.3972763974501,06037,2003,,"Los Angeles County, California",87760.0,44319.0,0.4972,0.9297188106694895,0.13643018098759088
11483,Red Line Robotics,Family/Community,Cambridge,Massachusetts,,42.3666036,-71.1056916,25025,2026,,"Suffolk County, Massachusetts",92859.0,56920.0,0.5266,0.937839715906911,0.16456921195630167
11484,Cheboygan,Cheboygan Area High School,CHEBOYGAN,Michigan,,45.64695630000001,-84.4744795,26031,2026,,"Cheboygan County, Michigan",61619.0,34750.0,0.4451,0.9300140498770636,0.1276136675689459
11486,Chesterton Academy OLOG Robotics,Chesterton Academy of Our Lady of Guadalupe,Clinton Township,Michigan,,42.600075,-82.93211680000002,26099,2026,,"Macomb County, Michigan",76399.0,39467.0,0.4264,0.9421495535032653,0.09817367091111727
11489,Ballou Robotic Knights,Ballou HS,Washington,District of Columbia,,47.7510741,-120.7401386,53007,2026,,"Chelan County, Washington",78306.0,42092.0,0.4566,0.9601429428489449,0.09011816482020886
11490,The Pixel Players,Way Academy Vernor Site,Detroit,Michigan,,42.33008274174718,-83.0424683788131,26163,2026,,"Wayne County, Michigan",59521.0,33956.0,0.4895,0.9132351507580325,0.20119497511085738
11491,Bloomingdale Cardinals,Bloomingdale Middle and High School,Bloomingdale,Michigan,,41.9575285,-88.0809036,17043,2026,,"DuPage County, Illinois",110502.0,57051.0,0.4569,0.9518329355233818,0.06437627928132818
11493,Pixel Knights,Bloomfield Christian School,Bloomfield Hills,Michigan,,42.583645,-83.24548829999999,26125,2026,,"Oakland County, Michigan",95296.0,55114.0,0.4651,0.9524251054472043,0.07693796589437044
11496,Jurassic JayHawks,Vandercook Lake High School,Jackson,Michigan,,42.334535,-122.7646577,41029,2026,,"Jackson County, Oregon",71443.0,38797.0,0.456,0.9457217486150579,0.1243185140988445
115,MVRT,Fremont Union High School Foundation/Bishop-Wisecarver/Rotary International/Johnson & Johnson MedTech/Intuitive Surgical/Gene Haas Foundation/Apple Computer&Monta Vista High School,Cupertino,California,95014,37.31317,-122.0723816,06085,1998,,"Santa Clara County, California",159674.0,77018.0,0.4739,0.9553829989225302,0.06864609510211955
11501,Jackets,Williams Junior/Senior High,Williams,California,,35.24945659999999,-112.1910031,04005,2026,,"Coconino County, Arizona",69748.0,35810.0,0.4783,0.9337065489811486,0.17683422685380398
11503,TALONS,Springfield Christian Academy,Clarkston,Michigan,,42.7369136637978,-83.42000564552161,26125,2026,,"Oakland County, Michigan",95296.0,55114.0,0.4651,0.9524251054472043,0.07693796589437044
11505,Kensington Woods Robotics,Kensington Woods Schools,Lakeland,Michigan,,28.042093,-81.9534956,12105,2026,,"Polk County, Florida",63644.0,31927.0,0.448,0.9561139489419764,0.14713802723026398
11511,Litchfield GearHeads,Litchfield High School,Litchfield,Michigan,,41.7475274,-73.1880152,09005,2026,,,,,,,
11522,Union HS,Union High School,Grand Rapids,Michigan,,42.9704146,-85.6721946,26081,2026,,"Kent County, Michigan",80390.0,41504.0,0.4486,0.958414406378056,0.10565515667125257
11527,FCCA Twisted Tech,Flint Cultural Center Academy,Flint,Michigan,,43.0125274,-83.6874562,26049,2026,,"Genesee County, Michigan",60673.0,34587.0,0.4638,0.9169643565928396,0.1594078029549741
1153,Timberwolves,Analog Devices/Legacy Engineering/WM Duggan Company/Koopman Lumber&Walpole High School,Walpole,Massachusetts,02081,42.1470851,-71.2517835,25021,2003,,"Norfolk County, Massachusetts",126497.0,69508.0,0.4843,0.9506661768962993,0.06628655601975898
1155,SciBorgs,The Alumni Foundation of the Bronx High School of Science/Bronx Science Parents’ Association/ConEdison/Bloomberg/Optimum./Roundtable&Bronx High School of Science,Bronx,New York,10468,40.8687887,-73.8977693,36005,2003,,"Bronx County, New York",49036.0,26956.0,0.5135,0.8888148712582671,0.2694714976944917
1159,Ramona Rampage,Boeing/Apple/Northrop Grumman/Flowserve Corporation/California Institute of Technology/Quality Plastics/Drs. Jack and Susan Blumenthal/Catering by Herach & Ara/Space X&Ramona Convent Secondary Sch,Alhambra,California,91803,34.0779881,-118.1415261,06037,2003,,"Los Angeles County, California",87760.0,44319.0,0.4972,0.9297188106694895,0.13643018098759088
116,Epsilon Delta,NASA Headquarters&Herndon High School,Herndon,Virginia,20170,38.9695545,-77.3860976,51059,1996,,"Fairfax County, Virginia",150113.0,69971.0,0.4299,0.9599266446369901,0.059358941781015306
1160,Titanium Robotics,NASA/JPL/Boeing/Northrop Grumman&San Marino High,San Marino,California,91108,34.121397,-118.1064585,06037,2003,,"Los Angeles County, California",87760.0,44319.0,0.4972,0.9297188106694895,0.13643018098759088
1164,Project NEO,NASA/Boeing/Gene Haas Foundation/Las Cruces Public Schools&Arrowhead Early Clg High Sch,Las Cruces,New Mexico,88005,32.3199396,-106.7636538,35013,2003,,"Doña Ana County, New Mexico",55663.0,28726.0,0.4781,0.9310060336172877,0.22213110956682883
1165,Team Paradise,Bechtel/Robotics Parent Group&Paradise Valley High School,Phoenix,Arizona,85032,33.6364503,-112.0118669,04013,2003,,"Maricopa County, Arizona",85518.0,44210.0,0.4571,0.953956221163431,0.11250356744752435
1168,Malvern Robotics,CTDI/All Fill Inc.&Malvern Preparatory School,Malvern,Pennsylvania,19355,40.0362184,-75.5138118,42029,2003,,"Chester County, Pennsylvania",123041.0,63089.0,0.452,0.9615284795087078,0.059366116653802904
117,Steel Dragons,Howmet Aerospace Foundation/Haas/Thrifty Bot&Pittsburgh Allderdice High Sch,Pittsburgh,Pennsylvania,15217,40.4327086,-79.9248669,42003,1998,,"Allegheny County, Pennsylvania",76393.0,48208.0,0.4835,0.9506103633555374,0.11214604696498016
1178,DURT  (De Smet United Robotics Team),De Smet Jesuit High School,Saint Louis,Missouri,63141,38.6624944,-90.4785495,29189,2003,,"St. Louis County, Missouri",81340.0,51085.0,0.4963,0.9579732884313651,0.09591286975839816
118,Robonauts,NASA-Johnson Space Center/Clear Creek Independent School District&Clear Creek Independent School District,Houston,Texas,77573,29.4947986,-95.0911062,48167,1997,,"Galveston County, Texas",85348.0,44123.0,0.4563,0.9446407274478295,0.11154669486498336
1188,The Ravens,General Motors/Bosch/TS Tech Americas/Inoac/Michigan Dept of Education/Michigan Engineering Zone (MEZ)&Royal Oak High School,Royal Oak,Michigan,48073,42.5183235,-83.15953999999999,26125,2003,,"Oakland County, Michigan",95296.0,55114.0,0.4651,0.9524251054472043,0.07693796589437044
1189,Gearheads,"General Motors, LLC/The Grosse Pointe STEAAM Foundation/Michigan Department of Education/Grosse Pointe Foundation for Public Education/Howard & Howard Law for Business/The Gene Haas Foundation/Grosse Pointe Public Schools/Hitachi Astemo/The Whittie Law Center/Treat Dreams Ice Cream/Grace CPA Sevices/Lakeshore Optimist Club of Grosse Pointe&Grosse Pointe South High Sch&Grosse Pointe North High Sch",Grosse Pointe,Michigan,48236,42.3861485,-82.9118591,26163,2003,,"Wayne County, Michigan",59521.0,33956.0,0.4895,0.9132351507580325,0.20119497511085738
1197,TorBots,The Boeing Company/Raytheon Technologies/Dreamscape Immersive/Moog Aircraft Group/Torrance Education Foundation/Torrance Refinery/Element/TUSD/Raising Cane's/Northrop Grumman&South High School,Torrance,California,90505,33.8101772,-118.3520389,06037,2003,,"Los Angeles County, California",87760.0,44319.0,0.4972,0.9297188106694895,0.13643018098759088
120,Youth Tech Academy Red Dragons,NASA/NASA Glenn Research Center/Cuyahoga Community College/Rockwell Automation&Youth Technology Academy,Cleveland,Ohio,44115,41.4963405,-81.6719914,39035,1995,,"Cuyahoga County, Ohio",62823.0,41559.0,0.5041,0.9306473538289032,0.16204236293851143
1208,Metool Brigade,"The Boeing Company/Department of Defense/SG-Labs/Town & Country Title Co./UNCOMN/Cox Land and Cattle, LLC&O'Fallon Twp High School",O Fallon,Illinois,62269,38.5900004,-89.9066314,17163,2003,,"St. Clair County, Illinois",70178.0,37824.0,0.4562,0.9432094197886338,0.13555057908252177
1209,RoboHornets,Booker T. Washington Foundation for Excellence/Hydra Service/Boeing/DOD-STEM/The Williams Companies/Society of Cable Telecommunication Engineers/Helmerich and Payne/Valley National Bank/The Persimmon Group/ESDC Engineering/Tulsa Plastics/Southwood Garden Center/Faith Technologies/Gardner Springs/Cherokee Nation&Booker T. Washington HS,Tulsa,Oklahoma,74106,36.1948497,-95.9885456,40143,2003,,"Tulsa County, Oklahoma",67317.0,39673.0,0.4861,0.9460532284893391,0.14658055709490425
1212,Sentinels,The Boeing Company & Seton Prep High School,Chandler,Arizona,85224,33.3260297,-111.8747445,04013,2003,,"Maricopa County, Arizona",85518.0,44210.0,0.4571,0.953956221163431,0.11250356744752435
1218,SCH Robotics,Metal Edge International/Comcast NBCUniversal/Naval Surface Warfare Center Philadelphia Division/Gene Haas Foundation/American Institute of Aeronautics and Astronautics/Laird Plastics/ErvTech International/R&M International&Springside Chestnut Hill Acad,Philadelphia,Pennsylvania,19118,40.0703334,-75.2070644,42101,2003,,"Philadelphia County, Pennsylvania",60698.0,37669.0,0.5152,0.9159715366337955,0.22003358368324463
122,NASA Knights,NASA Langley Research Center/Naval Information Warfare Center (NIWC) - Atlantic - DoD STEM&New Horizons Regional Education Center,Hampton,Virginia,23666,37.0538822,-76.39845369999999,51650,1997,,"Hampton city, Virginia",67758.0,36787.0,0.4357,0.9368624823170277,0.1303733647914522
1220,Rockhoppers - Hilltopper Robotics,Rockwell Automation/Regal Rexnord/Wright Weber&Divine Savior Holy Angels High School&Marquette University High School&Marquette University High School,Milwaukee,Wisconsin,53220,43.0389025,-87.9064736,55079,2003,,"Milwaukee County, Wisconsin",62118.0,36955.0,0.475,0.9534368727514229,0.17465977939008884
1225,The Gorillas,North Henderson High & East Henderson High & West Henderson High & Hendersonville High & Henderson County Career Academy & Henderson County Early College & Henderson County Public Schools,Hendersonville,North Carolina,28739,35.3187279,-82.4609528,37089,2003,,"Henderson County, North Carolina",67623.0,38976.0,0.4482,0.9665541083775526,0.11672688702430947
123,Team - Cosmos,General Motors Foundation/Gene Haas Foundation/Toyota/Autodesk/DADARA/State of Michigan&Hamtramck High School,Hamtramck,Michigan,48212,42.4140992,-83.05224679999999,26163,1997,,"Wayne County, Michigan",59521.0,33956.0,0.4895,0.9132351507580325,0.20119497511085738
1247,"Blood, Sweat, and Gears",NDEP/Hypertherm & Kearsarge Regional High School,North Sutton,New Hampshire,03260,43.3639646,-71.93952689999999,33013,2004,,"Merrimack County, New Hampshire",93944.0,47056.0,0.4348,0.969021524781585,0.0709465119863817
